#BESTPOSA,FILE,0,18.0,FINESTEERING,2307,286830.300,02000800,cdba,17139;SOL_COMPUTED,SINGLE,17.60153577026,78.12661174748,524.2976,-76.2000,WGS84,0.9680,1.0629,2.1630,"",0.000,0.000,43,39,39,0,00,02,11,11*58667490
#BESTPOSA,FILE,0,18.0,FINESTEERING,2307,286830.450,02000800,cdba,17139;SOL_COMPUTED,SINGLE,17.60153561082,78.12661162392,524.3241,-76.2000,WGS84,0.9670,1.0651,2.1619,"",0.000,0.000,43,39,39,0,00,02,11,11*47189e30
#BESTPOSA,FILE,0,18.0,FINESTEERING,2307,286830.550,02000800,cdba,17139;SOL_COMPUTED,SINGLE,17.60153555705,78.12661234844,524.2894,-76.2000,WGS84,0.9660,1.0935,2.1663,"",0.000,0.000,43,38,38,0,00,02,11,11*84236814
#BESTPOSA,FILE,0,18.0,FINESTEERING,2307,286830.700,02000800,cdba,17139;SOL_COMPUTED,SINGLE,17.60153565370,78.12661254994,524.2552,-76.2000,WGS84,0.9672,1.0560,2.1603,"",0.000,0.000,43,39,39,0,00,02,11,11*e86ebb71
#BESTPOSA,FILE,0,18.0,FINESTEERING,2307,286830.800,02000800,cdba,17139;SOL_COMPUTED,SINGLE,17.60153534116,78.12661223401,524.3214,-76.2000,WGS84,0.9636,1.0514,2.1535,"",0.000,0.000,43,39,39,0,00,02,11,11*8ee14115
#BESTPOSA,FILE,0,18.0,FINESTEERING,2307,286830.950,02000800,cdba,17139;SOL_COMPUTED,SINGLE,17.60153537002,78.12661231571,524.3138,-76.2000,WGS84,0.9645,1.0545,2.1557,"",0.000,0.000,43,39,39,0,00,02,11,11*32ad5488
#BESTPOSA,FILE,0,18.0,FINESTEERING,2307,286831.800,02000800,cdba,17139;SOL_COMPUTED,SINGLE,17.60153670329,78.12661376746,524.0017,-76.2000,WGS84,0.9608,1.0512,2.1490,"",0.000,0.000,43,39,39,0,00,02,11,11*be27ddcb
#BESTPOSA,FILE,0,18.5,FINESTEERING,2307,286831.950,02000800,cdba,17139;SOL_COMPUTED,SINGLE,17.60153698812,78.12661399343,523.9428,-76.2000,WGS84,0.9589,1.0484,2.1455,"",0.000,0.000,43,39,39,0,00,02,11,11*3405dedd
#BESTPOSA,FILE,0,18.5,FINESTEERING,2307,286832.200,02000800,cdba,17139;SOL_COMPUTED,SINGLE,17.60153735996,78.12661421335,523.8671,-76.2000,WGS84,0.9570,1.0505,2.1430,"",0.000,0.000,43,39,39,0,00,02,11,11*1f4ac648
#BESTPOSA,FILE,0,19.5,FINESTEERING,2307,286833.400,02000800,cdba,17139;SOL_COMPUTED,SINGLE,17.60153748981,78.12661414174,523.8222,-76.2000,WGS84,0.9530,1.0458,2.1357,"",0.000,0.000,43,39,39,0,00,02,11,11*76f337ed
#BESTPOSA,FILE,0,19.5,FINESTEERING,2307,286833.500,02000800,cdba,17139;SOL_COMPUTED,SINGLE,17.60153745330,78.12661424087,523.8199,-76.2000,WGS84,0.9568,1.0494,2.1426,"",0.000,0.000,43,39,39,0,00,02,11,11*e427d4ab
#BESTPOSA,FILE,0,19.5,FINESTEERING,2307,286833.650,02000800,cdba,17139;SOL_COMPUTED,SINGLE,17.60153758385,78.12661453280,523.7803,-76.2000,WGS84,0.9503,1.0429,2.1311,"",0.000,0.000,43,39,39,0,00,02,11,11*316dd59d
#BESTPOSA,FILE,0,19.5,FINESTEERING,2307,286833.750,02000800,cdba,17139;SOL_COMPUTED,SINGLE,17.60153754135,78.12661458485,523.7829,-76.2000,WGS84,0.9499,1.0430,2.1305,"",0.000,0.000,43,39,39,0,00,02,11,11*c5bd817f
#BESTPOSA,FILE,0,19.5,FINESTEERING,2307,286833.900,02000800,cdba,17139;SOL_COMPUTED,SINGLE,17.60153733911,78.12661451378,523.8181,-76.2000,WGS84,0.9509,1.0476,2.1328,"",0.000,0.000,43,39,39,0,00,02,11,11*814dfedd
#BESTPOSA,FILE,0,19.5,FINESTEERING,2307,286834.050,02000800,cdba,17139;SOL_COMPUTED,SINGLE,17.60153713526,78.12661443153,523.8572,-76.2000,WGS84,0.9571,1.0515,2.1435,"",0.000,0.000,43,39,39,0,00,02,11,11*bb413691
#BESTPOSA,FILE,0,16.5,FINESTEERING,2307,286834.200,02000800,cdba,17139;SOL_COMPUTED,SINGLE,17.60153704005,78.12661436766,523.8712,-76.2000,WGS84,0.9535,1.0487,2.1373,"",0.000,0.000,43,39,39,0,00,02,11,11*9d978f18
#BESTPOSA,FILE,0,16.5,FINESTEERING,2307,286834.300,02000800,cdba,17139;SOL_COMPUTED,SINGLE,17.60153696158,78.12661428156,523.8871,-76.2000,WGS84,0.9585,1.0594,2.1472,"",0.000,0.000,43,39,39,0,00,02,11,11*f839e410
#BESTPOSA,FILE,0,16.5,FINESTEERING,2307,286834.400,02000800,cdba,17139;SOL_COMPUTED,SINGLE,17.60153688752,78.12661423733,523.9002,-76.2000,WGS84,0.9485,1.0514,2.1296,"",0.000,0.000,43,39,39,0,00,02,11,11*8352007e
#BESTPOSA,FILE,0,16.5,FINESTEERING,2307,286834.450,02000800,cdba,17139;SOL_COMPUTED,SINGLE,17.60153684394,78.12661417520,523.9091,-76.2000,WGS84,0.9470,1.0496,2.1270,"",0.000,0.000,43,39,39,0,00,02,11,11*8cdbd4b6
#BESTPOSA,FILE,0,16.5,FINESTEERING,2307,286834.500,02000800,cdba,17139;SOL_COMPUTED,SINGLE,17.60153681187,78.12661418996,523.9121,-76.2000,WGS84,0.9469,1.0490,2.1266,"",0.000,0.000,43,39,39,0,00,02,11,11*d1d4dd8a
#BESTPOSA,FILE,0,16.5,FINESTEERING,2307,286834.550,02000800,cdba,17139;SOL_COMPUTED,SINGLE,17.60153680615,78.12661418027,523.9135,-76.2000,WGS84,0.9492,1.0503,2.1306,"",0.000,0.000,43,39,39,0,00,02,11,11*c978a4c4
#BESTPOSA,FILE,0,16.5,FINESTEERING,2307,286834.600,02000800,cdba,17139;SOL_COMPUTED,SINGLE,17.60153678880,78.12661417022,523.9151,-76.2000,WGS84,0.9515,1.0526,2.1348,"",0.000,0.000,43,39,39,0,00,02,11,11*03a143e7
#BESTPOSA,FILE,0,16.5,FINESTEERING,2307,286834.650,02000800,cdba,17139;SOL_COMPUTED,SINGLE,17.60153678365,78.12661401094,523.9239,-76.2000,WGS84,0.9514,1.0531,2.1348,"",0.000,0.000,43,39,39,0,00,02,11,11*07e4d1b4
#BESTPOSA,FILE,0,16.5,FINESTEERING,2307,286834.700,02000800,cdba,17139;SOL_COMPUTED,SINGLE,17.60153677328,78.12661389826,523.9304,-76.2000,WGS84,0.9547,1.0550,2.1403,"",0.000,0.000,43,39,39,0,00,02,11,11*14c72467
#BESTPOSA,FILE,0,16.5,FINESTEERING,2307,286834.750,02000800,cdba,17139;SOL_COMPUTED,SINGLE,17.60153674530,78.12661377520,523.9420,-76.2000,WGS84,0.9548,1.0590,2.1412,"",0.000,0.000,43,39,39,0,00,02,11,11*e774b695
#BESTPOSA,FILE,0,16.5,FINESTEERING,2307,286834.800,02000800,cdba,17139;SOL_COMPUTED,SINGLE,17.60153667063,78.12661362499,523.9605,-76.2000,WGS84,0.9476,1.0410,2.1265,"",0.000,0.000,43,39,39,0,00,02,11,11*5572723c
#BESTPOSA,FILE,0,16.5,FINESTEERING,2307,286834.850,02000800,cdba,17139;SOL_COMPUTED,SINGLE,17.60153663667,78.12661345269,523.9721,-76.2000,WGS84,0.9475,1.0422,2.1266,"",0.000,0.000,43,39,39,0,00,02,11,11*6d0bde7e
#BESTPOSA,FILE,0,16.5,FINESTEERING,2307,286834.900,02000800,cdba,17139;SOL_COMPUTED,SINGLE,17.60153661869,78.12661330462,523.9823,-76.2000,WGS84,0.9478,1.0420,2.1269,"",0.000,0.000,43,39,39,0,00,02,11,11*51a0f63d
#BESTPOSA,FILE,0,16.5,FINESTEERING,2307,286834.950,02000800,cdba,17139;SOL_COMPUTED,SINGLE,17.60153658616,78.12661319094,523.9918,-76.2000,WGS84,0.9494,1.0444,2.1300,"",0.000,0.000,43,39,39,0,00,02,11,11*a0f6545a
#BESTPOSA,FILE,0,16.5,FINESTEERING,2307,286835.000,02000800,cdba,17139;SOL_COMPUTED,SINGLE,17.60153656248,78.12661306351,524.0020,-76.2000,WGS84,0.9529,1.0451,2.1355,"",0.000,0.000,43,39,39,0,00,02,11,11*230b6660
#BESTPOSA,FILE,0,16.5,FINESTEERING,2307,286835.050,02000800,cdba,17139;SOL_COMPUTED,SINGLE,17.60153646988,78.12661290857,524.0281,-76.2000,WGS84,0.9504,1.0439,2.1313,"",0.000,0.000,43,39,39,0,00,02,11,11*76b77d9e
#BESTPOSA,FILE,0,16.5,FINESTEERING,2307,286835.100,02000800,cdba,17139;SOL_COMPUTED,SINGLE,17.60153641317,78.12661277898,524.0421,-76.2000,WGS84,0.9500,1.0438,2.1307,"",0.000,0.000,43,39,39,0,00,02,11,11*44cd59af
#BESTPOSA,FILE,0,16.5,FINESTEERING,2307,286835.150,02000800,cdba,17139;SOL_COMPUTED,SINGLE,17.60153644046,78.12661276692,524.0370,-76.2000,WGS84,0.9542,1.0517,2.1388,"",0.000,0.000,43,39,39,0,00,02,11,11*921b7e4d
#BESTPOSA,FILE,0,20.5,FINESTEERING,2307,286835.200,02000800,cdba,17139;SOL_COMPUTED,SINGLE,17.60153638532,78.12661266973,524.0523,-76.2000,WGS84,0.9535,1.0510,2.1376,"",0.000,0.000,43,39,39,0,00,02,11,11*8abad806
#BESTPOSA,FILE,0,20.5,FINESTEERING,2307,286835.250,02000800,cdba,17139;SOL_COMPUTED,SINGLE,17.60153620907,78.12661251290,524.0891,-76.2000,WGS84,0.9466,1.0491,2.1262,"",0.000,0.000,43,39,39,0,00,02,11,11*7a0488bd
#BESTPOSA,FILE,0,20.5,FINESTEERING,2307,286835.300,02000800,cdba,17139;SOL_COMPUTED,SINGLE,17.60153613537,78.12661225057,524.1158,-76.2000,WGS84,0.9459,1.0405,2.1237,"",0.000,0.000,43,39,39,0,00,02,11,11*019683f8
#BESTPOSA,FILE,0,20.5,FINESTEERING,2307,286835.350,02000800,cdba,17139;SOL_COMPUTED,SINGLE,17.60153609682,78.12661210730,524.1282,-76.2000,WGS84,0.9461,1.0399,2.1238,"",0.000,0.000,43,39,39,0,00,02,11,11*5a4b0060
#BESTPOSA,FILE,0,20.5,FINESTEERING,2307,286835.400,02000800,cdba,17139;SOL_COMPUTED,SINGLE,17.60153608249,78.12661206438,524.1325,-76.2000,WGS84,0.9471,1.0411,2.1256,"",0.000,0.000,43,39,39,0,00,02,11,11*cd1017c8
#BESTPOSA,FILE,0,20.5,FINESTEERING,2307,286835.450,02000800,cdba,17139;SOL_COMPUTED,SINGLE,17.60153602472,78.12661200178,524.1432,-76.2000,WGS84,0.9466,1.0414,2.1249,"",0.000,0.000,43,39,39,0,00,02,11,11*9d75e4b2
#BESTPOSA,FILE,0,20.5,FINESTEERING,2307,286835.500,02000800,cdba,17139;SOL_COMPUTED,SINGLE,17.60153595916,78.12661191045,524.1590,-76.2000,WGS84,0.9464,1.0418,2.1246,"",0.000,0.000,43,39,39,0,00,02,11,11*0b25d42e
#BESTPOSA,FILE,0,20.5,FINESTEERING,2307,286835.550,02000800,cdba,17139;SOL_COMPUTED,SINGLE,17.60153589800,78.12661177895,524.1736,-76.2000,WGS84,0.9464,1.0410,2.1245,"",0.000,0.000,43,39,39,0,00,02,11,11*40bf052d
#BESTPOSA,FILE,0,20.5,FINESTEERING,2307,286835.600,02000800,cdba,17139;SOL_COMPUTED,SINGLE,17.60153583793,78.12661168393,524.1905,-76.2000,WGS84,0.9458,1.0411,2.1236,"",0.000,0.000,43,39,39,0,00,02,11,11*c9894249
#BESTPOSA,FILE,0,20.5,FINESTEERING,2307,286835.650,02000800,cdba,17139;SOL_COMPUTED,SINGLE,17.60153582961,78.12661165787,524.1949,-76.2000,WGS84,0.9465,1.0437,2.1252,"",0.000,0.000,43,39,39,0,00,02,11,11*97bb8d63
#BESTPOSA,FILE,0,20.5,FINESTEERING,2307,286835.700,02000800,cdba,17139;SOL_COMPUTED,SINGLE,17.60153581427,78.12661158356,524.1988,-76.2000,WGS84,0.9474,1.0441,2.1266,"",0.000,0.000,43,39,39,0,00,02,11,11*3838447e
#BESTPOSA,FILE,0,20.5,FINESTEERING,2307,286835.750,02000800,cdba,17139;SOL_COMPUTED,SINGLE,17.60153580893,78.12661147672,524.2109,-76.2000,WGS84,0.9485,1.0448,2.1284,"",0.000,0.000,43,39,39,0,00,02,11,11*50b879be
#BESTPOSA,FILE,0,20.5,FINESTEERING,2307,286835.800,02000800,cdba,17139;SOL_COMPUTED,SINGLE,17.60153579444,78.12661136509,524.2268,-76.2000,WGS84,0.9482,1.0439,2.1277,"",0.000,0.000,43,39,39,0,00,02,11,11*243f0975
#BESTPOSA,FILE,0,20.5,FINESTEERING,2307,286835.850,02000800,cdba,17139;SOL_COMPUTED,SINGLE,17.60153577549,78.12661127155,524.2426,-76.2000,WGS84,0.9474,1.0443,2.1264,"",0.000,0.000,43,39,39,0,00,02,11,11*e0c67148
#BESTPOSA,FILE,0,20.5,FINESTEERING,2307,286835.900,02000800,cdba,17139;SOL_COMPUTED,SINGLE,17.60153591488,78.12661129429,524.2280,-76.2000,WGS84,0.9512,1.0464,2.1330,"",0.000,0.000,43,39,39,0,00,02,11,11*9f42a6bb
#BESTPOSA,FILE,0,20.5,FINESTEERING,2307,286835.950,02000800,cdba,17139;SOL_COMPUTED,SINGLE,17.60153602770,78.12661129829,524.2220,-76.2000,WGS84,0.9535,1.0480,2.1369,"",0.000,0.000,43,39,39,0,00,02,11,11*ae4584a9
#BESTPOSA,FILE,0,20.5,FINESTEERING,2307,286836.000,02000800,cdba,17139;SOL_COMPUTED,SINGLE,17.60153581279,78.12661100263,524.2870,-76.2000,WGS84,0.9466,1.0434,2.1251,"",0.000,0.000,43,39,39,0,00,02,11,11*7a8ceafd
#BESTPOSA,FILE,0,20.5,FINESTEERING,2307,286836.050,02000800,cdba,17139;SOL_COMPUTED,SINGLE,17.60153584683,78.12661091891,524.3010,-76.2000,WGS84,0.9467,1.0428,2.1250,"",0.000,0.000,43,39,39,0,00,02,11,11*3034d213
#BESTPOSA,FILE,0,2.5,FINESTEERING,2307,286836.100,02000800,cdba,17139;SOL_COMPUTED,SINGLE,17.60153580569,78.12661075379,524.3299,-76.2000,WGS84,0.9444,1.0407,2.1211,"",0.000,0.000,43,39,39,0,00,02,11,11*b7ce07af
#BESTPOSA,FILE,0,2.5,FINESTEERING,2307,286836.150,02000800,cdba,17139;SOL_COMPUTED,SINGLE,17.60153592891,78.12661077584,524.3269,-76.2000,WGS84,0.9426,1.0400,2.1181,"",0.000,0.000,43,39,39,0,00,02,11,11*490c95f4
#BESTPOSA,FILE,0,2.5,FINESTEERING,2307,286836.200,02000800,cdba,17139;SOL_COMPUTED,SINGLE,17.60153607287,78.12661077463,524.3227,-76.2000,WGS84,0.9411,1.0385,2.1155,"",0.000,0.000,43,39,39,0,00,02,11,11*c095208b
#BESTPOSA,FILE,0,2.5,FINESTEERING,2307,286836.250,02000800,cdba,17139;SOL_COMPUTED,SINGLE,17.60153623336,78.12661078872,524.3156,-76.2000,WGS84,0.9398,1.0369,2.1133,"",0.000,0.000,43,39,39,0,00,02,11,11*1ece1b96
#BESTPOSA,FILE,0,2.5,FINESTEERING,2307,286836.300,02000800,cdba,17139;SOL_COMPUTED,SINGLE,17.60153641436,78.12661079205,524.3046,-76.2000,WGS84,0.9384,1.0358,2.1109,"",0.000,0.000,43,39,39,0,00,02,11,11*08abc0f2
#BESTPOSA,FILE,0,2.5,FINESTEERING,2307,286836.350,02000800,cdba,17139;SOL_COMPUTED,SINGLE,17.60153658945,78.12661087328,524.2978,-76.2000,WGS84,0.9373,1.0358,2.1092,"",0.000,0.000,43,39,39,0,00,02,11,11*ed2c6bce
#BESTPOSA,FILE,0,2.5,FINESTEERING,2307,286836.400,02000800,cdba,17139;SOL_COMPUTED,SINGLE,17.60153686839,78.12661095568,524.2709,-76.2000,WGS84,0.9396,1.0367,2.1132,"",0.000,0.000,43,39,39,0,00,02,11,11*9d3e20b6
#BESTPOSA,FILE,0,2.5,FINESTEERING,2307,286836.450,02000800,cdba,17139;SOL_COMPUTED,SINGLE,17.60153708286,78.12661103213,524.2571,-76.2000,WGS84,0.9391,1.0368,2.1123,"",0.000,0.000,43,39,39,0,00,02,11,11*d5131cf5
#BESTPOSA,FILE,0,2.5,FINESTEERING,2307,286836.500,02000800,cdba,17139;SOL_COMPUTED,SINGLE,17.60153729789,78.12661102151,524.2464,-76.2000,WGS84,0.9389,1.0357,2.1119,"",0.000,0.000,43,39,39,0,00,02,11,11*2e812b1f
#BESTPOSA,FILE,0,2.5,FINESTEERING,2307,286836.550,02000800,cdba,17139;SOL_COMPUTED,SINGLE,17.60153767391,78.12661130565,524.1940,-76.2000,WGS84,0.9447,1.0436,2.1224,"",0.000,0.000,43,39,39,0,00,02,11,11*88663c63
#BESTPOSA,FILE,0,2.5,FINESTEERING,2307,286836.600,02000800,cdba,17139;SOL_COMPUTED,SINGLE,17.60153812963,78.12661151564,524.1363,-76.2000,WGS84,0.9544,1.0504,2.1390,"",0.000,0.000,43,39,39,0,00,02,11,11*571ab003
#BESTPOSA,FILE,0,2.5,FINESTEERING,2307,286836.650,02000800,cdba,17139;SOL_COMPUTED,SINGLE,17.60153857859,78.12661176245,524.0819,-76.2000,WGS84,0.9654,1.0594,2.1581,"",0.000,0.000,43,39,39,0,00,02,11,11*6180c579
#BESTPOSA,FILE,0,2.5,FINESTEERING,2307,286836.700,02000800,cdba,17139;SOL_COMPUTED,SINGLE,17.60153860282,78.12661171385,524.1117,-76.2000,WGS84,0.9534,1.0543,2.1380,"",0.000,0.000,43,39,39,0,00,02,11,11*209919aa
#BESTPOSA,FILE,0,2.5,FINESTEERING,2307,286836.750,02000800,cdba,17139;SOL_COMPUTED,SINGLE,17.60153870463,78.12661152736,524.1397,-76.2000,WGS84,0.9445,1.0461,2.1223,"",0.000,0.000,43,39,39,0,00,02,11,11*10c80c40
#BESTPOSA,FILE,0,2.5,FINESTEERING,2307,286836.800,02000000,cdba,17139;SOL_COMPUTED,SINGLE,17.60153895146,78.12661147512,524.1343,-76.2000,WGS84,0.9411,1.0425,2.1163,"",0.000,0.000,43,39,39,0,00,02,11,11*80b81dae
#BESTPOSA,FILE,0,2.5,FINESTEERING,2307,286836.850,02000000,cdba,17139;SOL_COMPUTED,SINGLE,17.60153923653,78.12661152183,524.1260,-76.2000,WGS84,0.9412,1.0422,2.1165,"",0.000,0.000,43,39,39,0,00,02,11,11*7144e20c
#BESTPOSA,FILE,0,2.5,FINESTEERING,2307,286836.900,02000000,cdba,17139;SOL_COMPUTED,SINGLE,17.60153955265,78.12661156262,524.1057,-76.2000,WGS84,0.9419,1.0430,2.1177,"",0.000,0.000,43,39,39,0,00,02,11,11*443e8d44
#BESTPOSA,FILE,0,2.5,FINESTEERING,2307,286836.950,02000000,cdba,17139;SOL_COMPUTED,SINGLE,17.60153993221,78.12661161355,524.0785,-76.2000,WGS84,0.9418,1.0423,2.1173,"",0.000,0.000,43,39,39,0,00,02,11,11*9f06108d
#BESTPOSA,FILE,0,2.5,FINESTEERING,2307,286837.000,02000000,cdba,17139;SOL_COMPUTED,SINGLE,17.60154028279,78.12661168899,524.0540,-76.2000,WGS84,0.9413,1.0422,2.1165,"",0.000,0.000,43,39,39,0,00,02,11,11*89a61784
#BESTPOSA,FILE,0,2.5,FINESTEERING,2307,286837.050,02000000,cdba,17139;SOL_COMPUTED,SINGLE,17.60154065132,78.12661205969,524.0166,-76.2000,WGS84,0.9392,1.0451,2.1136,"",0.000,0.000,43,39,39,0,00,02,11,11*a0ffeb54
#BESTPOSA,FILE,0,2.5,FINESTEERING,2307,286837.100,02000000,cdba,17139;SOL_COMPUTED,SINGLE,17.60154103870,78.12661180037,524.0194,-76.2000,WGS84,0.9367,1.0329,2.1078,"",0.000,0.000,43,39,39,0,00,02,11,11*c8d64b28
#BESTPOSA,FILE,0,2.5,FINESTEERING,2307,286837.150,02000000,cdba,17139;SOL_COMPUTED,SINGLE,17.60154138718,78.12661193158,523.9969,-76.2000,WGS84,0.9344,1.0314,2.1039,"",0.000,0.000,43,39,39,0,00,02,11,11*9d5c5237
#BESTPOSA,FILE,0,2.5,FINESTEERING,2307,286837.200,02000000,cdba,17139;SOL_COMPUTED,SINGLE,17.60154190171,78.12661022227,524.0616,-76.2000,WGS84,0.9332,1.0333,2.1021,"",0.000,0.000,43,39,39,1,00,02,19,11*1f5bb605
#BESTPOSA,FILE,0,2.5,FINESTEERING,2307,286837.250,02000000,cdba,17139;SOL_COMPUTED,SINGLE,17.60154233994,78.12661038017,524.0456,-76.2000,WGS84,0.9346,1.0350,2.1046,"",0.000,0.000,43,39,39,1,00,02,19,11*4402ad87
#BESTPOSA,FILE,0,2.5,FINESTEERING,2307,286837.300,02000000,cdba,17139;SOL_COMPUTED,SINGLE,17.60154266140,78.12661327681,523.9067,-76.2000,WGS84,0.9357,1.0340,2.1061,"",0.000,0.000,43,39,39,0,00,02,11,11*675c4ef9
#BESTPOSA,FILE,0,2.5,FINESTEERING,2307,286837.350,02000000,cdba,17139;SOL_COMPUTED,SINGLE,17.60154303513,78.12661323428,523.9193,-76.2000,WGS84,0.9486,1.0431,2.1281,"",0.000,0.000,43,39,39,0,00,02,11,11*5a991af2
#BESTPOSA,FILE,0,2.5,FINESTEERING,2307,286837.400,02000000,cdba,17139;SOL_COMPUTED,SINGLE,17.60154344449,78.12661324447,523.9346,-76.2000,WGS84,0.9532,1.0459,2.1360,"",0.000,0.000,43,39,39,0,00,02,11,11*b5b84c18
#BESTPOSA,FILE,0,2.5,FINESTEERING,2307,286837.450,02000000,cdba,17139;SOL_COMPUTED,SINGLE,17.60154382944,78.12661326969,523.9624,-76.2000,WGS84,0.9409,1.0417,2.1156,"",0.000,0.000,43,39,39,0,00,02,11,11*2fcc1c42
#BESTPOSA,FILE,0,2.5,FINESTEERING,2307,286837.500,02000000,cdba,17139;SOL_COMPUTED,SINGLE,17.60154431829,78.12661322219,523.9731,-76.2000,WGS84,0.9439,1.0446,2.1208,"",0.000,0.000,43,39,39,0,00,02,11,11*706b72a5
#BESTPOSA,FILE,0,2.5,FINESTEERING,2307,286837.550,02000000,cdba,17139;SOL_COMPUTED,SINGLE,17.60154483006,78.12661320661,523.9888,-76.2000,WGS84,0.9436,1.0482,2.1208,"",0.000,0.000,43,39,39,0,00,02,11,11*077435e0
#BESTPOSA,FILE,0,2.5,FINESTEERING,2307,286837.600,02000000,cdba,17139;SOL_COMPUTED,SINGLE,17.60154603177,78.12661383422,523.8610,-76.2000,WGS84,0.9856,1.0800,2.1942,"",0.000,0.000,42,38,38,0,00,02,11,11*cdc048eb
#BESTPOSA,FILE,0,2.5,FINESTEERING,2307,286837.650,02000000,cdba,17139;SOL_COMPUTED,SINGLE,17.60154673927,78.12661386393,523.8553,-76.2000,WGS84,0.9857,1.0795,2.1941,"",0.000,0.000,42,38,38,0,00,02,11,11*3dbe74c5
#BESTPOSA,FILE,0,2.5,FINESTEERING,2307,286837.700,02000000,cdba,17139;SOL_COMPUTED,SINGLE,17.60154741094,78.12661358192,523.8733,-76.2000,WGS84,0.9854,1.0680,2.1908,"",0.000,0.000,42,38,38,0,00,02,11,11*567fab69
#BESTPOSA,FILE,0,2.5,FINESTEERING,2307,286837.750,02000000,cdba,17139;SOL_COMPUTED,SINGLE,17.60154544922,78.12661114535,524.4591,-76.2000,WGS84,0.9463,1.0397,2.1238,"",0.000,0.000,43,39,39,0,00,02,11,11*ed43c11d
#BESTPOSA,FILE,0,2.5,FINESTEERING,2307,286837.800,02000000,cdba,17139;SOL_COMPUTED,SINGLE,17.60154621384,78.12661117770,524.4581,-76.2000,WGS84,0.9456,1.0426,2.1231,"",0.000,0.000,43,39,39,0,00,02,11,11*459335e4
#BESTPOSA,FILE,0,2.5,FINESTEERING,2307,286837.850,02000000,cdba,17139;SOL_COMPUTED,SINGLE,17.60154673950,78.12661100985,524.5089,-76.2000,WGS84,0.9419,1.0420,2.1171,"",0.000,0.000,43,39,39,0,00,02,11,11*8abac27a
#BESTPOSA,FILE,0,2.5,FINESTEERING,2307,286837.900,02000000,cdba,17139;SOL_COMPUTED,SINGLE,17.60154785915,78.12661127600,524.4480,-76.2000,WGS84,0.9458,1.0423,2.1233,"",0.000,0.000,43,39,39,0,00,02,11,11*729388c0
#BESTPOSA,FILE,0,2.5,FINESTEERING,2307,286837.950,02000000,cdba,17139;SOL_COMPUTED,SINGLE,17.60154905381,78.12661154820,524.3746,-76.2000,WGS84,0.9503,1.0429,2.1305,"",0.000,0.000,43,39,39,0,00,02,11,11*397ff68b
#BESTPOSA,FILE,0,2.5,FINESTEERING,2307,286838.000,02000000,cdba,17139;SOL_COMPUTED,SINGLE,17.60154997907,78.12661165292,524.3620,-76.2000,WGS84,0.9511,1.0484,2.1326,"",0.000,0.000,43,39,39,0,00,02,11,11*dfeb9663
#BESTPOSA,FILE,0,2.5,FINESTEERING,2307,286838.050,02000000,cdba,17139;SOL_COMPUTED,SINGLE,17.60155031665,78.12661120736,524.4825,-76.2000,WGS84,0.9424,1.0423,2.1177,"",0.000,0.000,43,39,39,0,00,02,11,11*8354c111
#BESTPOSA,FILE,0,2.5,FINESTEERING,2307,286838.100,02000000,cdba,17139;SOL_COMPUTED,SINGLE,17.60155137172,78.12661135173,524.4544,-76.2000,WGS84,0.9441,1.0426,2.1205,"",0.000,0.000,43,39,39,0,00,02,11,11*851a5128
#BESTPOSA,FILE,0,5.0,FINESTEERING,2307,286838.150,02000000,cdba,17139;SOL_COMPUTED,SINGLE,17.60155219977,78.12661120423,524.4814,-76.2000,WGS84,0.9418,1.0396,2.1164,"",0.000,0.000,43,39,39,0,00,02,11,11*d312d439
#BESTPOSA,FILE,0,5.0,FINESTEERING,2307,286838.200,02000000,cdba,17139;SOL_COMPUTED,SINGLE,17.60155322114,78.12661130181,524.4703,-76.2000,WGS84,0.9423,1.0392,2.1174,"",0.000,0.000,43,39,39,0,00,02,11,11*d6bafeb3
#BESTPOSA,FILE,0,5.0,FINESTEERING,2307,286838.250,02000000,cdba,17139;SOL_COMPUTED,SINGLE,17.60155413820,78.12661118317,524.4883,-76.2000,WGS84,0.9406,1.0380,2.1146,"",0.000,0.000,43,39,39,0,00,02,11,11*4ddf81a3
#BESTPOSA,FILE,0,5.0,FINESTEERING,2307,286838.300,02000000,cdba,17139;SOL_COMPUTED,SINGLE,17.60155514103,78.12661117823,524.4920,-76.2000,WGS84,0.9403,1.0382,2.1140,"",0.000,0.000,43,39,39,0,00,02,11,11*f18a1899
#BESTPOSA,FILE,0,5.0,FINESTEERING,2307,286838.350,02000000,cdba,17139;SOL_COMPUTED,SINGLE,17.60155922574,78.12661395877,523.8393,-76.2000,WGS84,0.9856,1.0697,2.1918,"",0.000,0.000,42,38,38,0,00,02,11,11*0c19d49a
#BESTPOSA,FILE,0,5.0,FINESTEERING,2307,286838.400,02000000,cdba,17139;SOL_COMPUTED,SINGLE,17.60156030131,78.12661396595,523.8368,-76.2000,WGS84,0.9856,1.0685,2.1916,"",0.000,0.000,42,38,38,0,00,02,11,11*733592ac
#BESTPOSA,FILE,0,5.0,FINESTEERING,2307,286838.450,02000000,cdba,17139;SOL_COMPUTED,SINGLE,17.60156139898,78.12661396340,523.8358,-76.2000,WGS84,0.9857,1.0686,2.1916,"",0.000,0.000,42,38,38,0,00,02,11,11*a6b17980
#BESTPOSA,FILE,0,5.0,FINESTEERING,2307,286838.500,02000000,cdba,17139;SOL_COMPUTED,SINGLE,17.60156251119,78.12661393585,523.8344,-76.2000,WGS84,0.9858,1.0686,2.1918,"",0.000,0.000,42,38,38,0,00,02,11,11*d5f1f8ee
#BESTPOSA,FILE,0,5.0,FINESTEERING,2307,286838.550,02000000,cdba,17139;SOL_COMPUTED,SINGLE,17.60156363268,78.12661390400,523.8433,-76.2000,WGS84,0.9859,1.0686,2.1920,"",0.000,0.000,42,38,38,0,00,02,11,11*4d14d6e5
#BESTPOSA,FILE,0,5.0,FINESTEERING,2307,286838.600,02000000,cdba,17139;SOL_COMPUTED,SINGLE,17.60156480574,78.12661386752,523.8386,-76.2000,WGS84,0.9856,1.0692,2.1921,"",0.000,0.000,42,38,38,0,00,02,11,11*7bf51a21
#BESTPOSA,FILE,0,5.0,FINESTEERING,2307,286838.650,02000000,cdba,17139;SOL_COMPUTED,SINGLE,17.60156595118,78.12661391615,523.8390,-76.2000,WGS84,0.9858,1.0750,2.1938,"",0.000,0.000,42,38,38,0,00,02,11,11*1a1c2e4a
#BESTPOSA,FILE,0,5.0,FINESTEERING,2307,286838.700,02000000,cdba,17139;SOL_COMPUTED,SINGLE,17.60156713559,78.12661387789,523.8411,-76.2000,WGS84,0.9858,1.0752,2.1939,"",0.000,0.000,42,38,38,0,00,02,11,11*036853dd
#BESTPOSA,FILE,0,5.0,FINESTEERING,2307,286838.750,02000000,cdba,17139;SOL_COMPUTED,SINGLE,17.60156833940,78.12661385323,523.8391,-76.2000,WGS84,0.9858,1.0761,2.1942,"",0.000,0.000,42,38,38,0,00,02,11,11*554c305b
#BESTPOSA,FILE,0,5.0,FINESTEERING,2307,286838.800,02000000,cdba,17139;SOL_COMPUTED,SINGLE,17.60156953831,78.12661385218,523.8485,-76.2000,WGS84,0.9858,1.0747,2.1941,"",0.000,0.000,42,38,38,0,00,02,11,11*22c44419
#BESTPOSA,FILE,0,5.0,FINESTEERING,2307,286838.850,02000000,cdba,17139;SOL_COMPUTED,SINGLE,17.60157079536,78.12661384899,523.8495,-76.2000,WGS84,0.9857,1.0748,2.1943,"",0.000,0.000,42,38,38,0,00,02,11,11*f718d968
#BESTPOSA,FILE,0,5.0,FINESTEERING,2307,286838.900,02000000,cdba,17139;SOL_COMPUTED,SINGLE,17.60157206450,78.12661380372,523.8464,-76.2000,WGS84,0.9856,1.0748,2.1943,"",0.000,0.000,42,38,38,0,00,02,11,11*a5777da8
#BESTPOSA,FILE,0,5.0,FINESTEERING,2307,286838.950,02000000,cdba,17139;SOL_COMPUTED,SINGLE,17.60157335143,78.12661377432,523.8449,-76.2000,WGS84,0.9856,1.0739,2.1944,"",0.000,0.000,42,38,38,0,00,02,11,11*50efdad0
#BESTPOSA,FILE,0,5.0,FINESTEERING,2307,286839.000,02000000,cdba,17139;SOL_COMPUTED,SINGLE,17.60157467431,78.12661374300,523.8544,-76.2000,WGS84,0.9854,1.0750,2.1958,"",0.000,0.000,42,38,38,0,00,02,11,11*4ae1f191
#BESTPOSA,FILE,0,5.0,FINESTEERING,2307,286839.050,02000000,cdba,17139;SOL_COMPUTED,SINGLE,17.60157601362,78.12661372278,523.8631,-76.2000,WGS84,0.9855,1.0760,2.1966,"",0.000,0.000,42,38,38,0,00,02,11,11*cec50b15
#BESTPOSA,FILE,0,5.0,FINESTEERING,2307,286839.100,02000000,cdba,17139;SOL_COMPUTED,SINGLE,17.60157743104,78.12661347589,523.9009,-76.2000,WGS84,0.9854,1.0659,2.2010,"",0.000,0.000,42,38,38,0,00,02,11,11*6179fdae
#BESTPOSA,FILE,0,7.5,FINESTEERING,2307,286839.150,02000000,cdba,17139;SOL_COMPUTED,SINGLE,17.60157886517,78.12661338765,523.9278,-76.2000,WGS84,0.9855,1.0671,2.2071,"",0.000,0.000,42,38,38,0,00,02,11,11*601e2c70
#BESTPOSA,FILE,0,7.5,FINESTEERING,2307,286839.200,02000000,cdba,17139;SOL_COMPUTED,SINGLE,17.60158025658,78.12661352408,523.8892,-76.2000,WGS84,0.9851,1.0632,2.1938,"",0.000,0.000,42,38,38,0,00,02,11,11*622f1a4a
#BESTPOSA,FILE,0,7.5,FINESTEERING,2307,286839.250,02000000,cdba,17139;SOL_COMPUTED,SINGLE,17.60158174157,78.12661337864,523.9121,-76.2000,WGS84,0.9851,1.0659,2.1988,"",0.000,0.000,42,38,38,0,00,02,11,11*97d2f98a
#BESTPOSA,FILE,0,7.5,FINESTEERING,2307,286839.300,02000000,cdba,17139;SOL_COMPUTED,SINGLE,17.60158322053,78.12661337339,523.9159,-76.2000,WGS84,0.9851,1.0658,2.1989,"",0.000,0.000,42,38,38,0,00,02,11,11*0a2c45f3
#BESTPOSA,FILE,0,7.5,FINESTEERING,2307,286839.350,02000000,cdba,17139;SOL_COMPUTED,SINGLE,17.60158473552,78.12661330026,523.9242,-76.2000,WGS84,0.9850,1.0643,2.1985,"",0.000,0.000,42,38,38,0,00,02,11,11*62adac53
#BESTPOSA,FILE,0,7.5,FINESTEERING,2307,286839.400,02000000,cdba,17139;SOL_COMPUTED,SINGLE,17.60158631416,78.12661321533,523.9393,-76.2000,WGS84,0.9851,1.0674,2.2039,"",0.000,0.000,42,38,38,0,00,02,11,11*5459b7ca
#BESTPOSA,FILE,0,7.5,FINESTEERING,2307,286839.450,02000000,cdba,17139;SOL_COMPUTED,SINGLE,17.60158787839,78.12661307770,523.9420,-76.2000,WGS84,0.9860,1.0806,2.2445,"",0.000,0.000,42,38,38,1,00,02,11,11*7935b774
#BESTPOSA,FILE,0,7.5,FINESTEERING,2307,286839.500,02000000,cdba,17139;SOL_COMPUTED,SINGLE,17.60158952329,78.12661276525,524.0245,-76.2000,WGS84,0.9863,1.0861,2.2592,"",0.000,0.000,42,38,38,1,00,02,11,11*0b96977e
#BESTPOSA,FILE,0,7.5,FINESTEERING,2307,286839.550,02000000,cdba,17139;SOL_COMPUTED,SINGLE,17.60159112927,78.12661263336,524.0458,-76.2000,WGS84,0.9863,1.0852,2.2607,"",0.000,0.000,42,38,38,1,00,02,11,11*46f38ccd
#BESTPOSA,FILE,0,7.5,FINESTEERING,2307,286839.600,02000000,cdba,17139;SOL_COMPUTED,SINGLE,17.60159279294,78.12661237466,524.1033,-76.2000,WGS84,0.9866,1.0913,2.2733,"",0.000,0.000,42,38,38,1,00,02,11,11*32669b7c
#BESTPOSA,FILE,0,7.5,FINESTEERING,2307,286839.650,02000000,cdba,17139;SOL_COMPUTED,SINGLE,17.60159456588,78.12661164696,524.2744,-76.2000,WGS84,0.9874,1.1048,2.3069,"",0.000,0.000,42,38,38,1,00,02,11,11*9a993b0a
#BESTPOSA,FILE,0,7.5,FINESTEERING,2307,286839.700,02000000,cdba,17139;SOL_COMPUTED,SINGLE,17.60159601768,78.12661225980,524.1037,-76.2000,WGS84,0.9865,1.0898,2.2687,"",0.000,0.000,42,38,38,1,00,02,11,11*d7d0b161
#BESTPOSA,FILE,0,7.5,FINESTEERING,2307,286839.750,02000000,cdba,17139;SOL_COMPUTED,SINGLE,17.60159831701,78.12660663244,524.9675,-76.2000,WGS84,0.9865,1.0910,2.2700,"",0.000,0.000,42,38,38,2,00,02,39,11*5b3bfe76
#BESTPOSA,FILE,0,7.5,FINESTEERING,2307,286839.800,02000000,cdba,17139;SOL_COMPUTED,SINGLE,17.60159979310,78.12661054012,524.6055,-76.2000,WGS84,0.9890,1.1295,2.3752,"",0.000,0.000,41,37,37,0,00,02,11,11*8190785a
#BESTPOSA,FILE,0,7.5,FINESTEERING,2307,286839.850,02000000,cdba,17139;SOL_COMPUTED,SINGLE,17.60160152173,78.12661028856,524.6551,-76.2000,WGS84,0.9864,1.0900,2.2702,"",0.000,0.000,42,38,38,1,00,02,31,11*893a7dc7
#BESTPOSA,FILE,0,7.5,FINESTEERING,2307,286839.900,02000000,cdba,17139;SOL_COMPUTED,SINGLE,17.60160286786,78.12661160061,524.3097,-76.2000,WGS84,0.9876,1.1081,2.3192,"",0.000,0.000,42,38,38,1,00,02,11,11*5f943b7e
#BESTPOSA,FILE,0,7.5,FINESTEERING,2307,286839.950,02000000,cdba,17139;SOL_COMPUTED,SINGLE,17.60160447519,78.12661202640,524.2058,-76.2000,WGS84,0.9873,1.1048,2.3080,"",0.000,0.000,42,38,38,1,00,02,11,11*1c36a46d
#BESTPOSA,FILE,0,7.5,FINESTEERING,2307,286840.000,02000000,cdba,17139;SOL_COMPUTED,SINGLE,17.60160660979,78.12661011837,524.6730,-76.2000,WGS84,0.9865,1.0921,2.2716,"",0.000,0.000,42,38,38,1,00,02,31,11*f3ff8535
#BESTPOSA,FILE,0,7.5,FINESTEERING,2307,286840.050,02000000,cdba,17139;SOL_COMPUTED,SINGLE,17.60160833510,78.12661003601,524.6812,-76.2000,WGS84,0.9864,1.0916,2.2717,"",0.000,0.000,42,38,38,1,00,02,31,11*3e1a9459
#BESTPOSA,FILE,0,7.5,FINESTEERING,2307,286840.100,02000000,cdba,17139;SOL_COMPUTED,SINGLE,17.60161007462,78.12660997100,524.6895,-76.2000,WGS84,0.9864,1.0910,2.2721,"",0.000,0.000,42,38,38,1,00,02,31,11*370bfe7d
#BESTPOSA,FILE,0,6.5,FINESTEERING,2307,286840.150,02000000,cdba,17139;SOL_COMPUTED,SINGLE,17.60161181883,78.12660995687,524.6947,-76.2000,WGS84,0.9865,1.0950,2.2747,"",0.000,0.000,42,38,38,1,00,02,31,11*afbb9dcb
#BESTPOSA,FILE,0,6.5,FINESTEERING,2307,286840.200,02000000,cdba,17139;SOL_COMPUTED,SINGLE,17.60161355142,78.12661009010,524.6564,-76.2000,WGS84,0.9890,1.1350,2.3777,"",0.000,0.000,41,37,37,0,00,02,11,11*ce59441e
#BESTPOSA,FILE,0,6.5,FINESTEERING,2307,286840.250,02000000,cdba,17139;SOL_COMPUTED,SINGLE,17.60161531502,78.12660998739,524.6696,-76.2000,WGS84,0.9890,1.1344,2.3775,"",0.000,0.000,41,37,37,0,00,02,11,11*a9b4cc34
#BESTPOSA,FILE,0,6.5,FINESTEERING,2307,286840.300,02000000,cdba,17139;SOL_COMPUTED,SINGLE,17.60161708543,78.12660990207,524.6767,-76.2000,WGS84,0.9890,1.1334,2.3771,"",0.000,0.000,41,37,37,0,00,02,11,11*43f426db
#BESTPOSA,FILE,0,6.5,FINESTEERING,2307,286840.350,02000000,cdba,17139;SOL_COMPUTED,SINGLE,17.60161887554,78.12660979801,524.6877,-76.2000,WGS84,0.9889,1.1309,2.3762,"",0.000,0.000,41,37,37,0,00,02,11,11*4aa1c00f
#BESTPOSA,FILE,0,6.5,FINESTEERING,2307,286840.400,02000000,cdba,17139;SOL_COMPUTED,SINGLE,17.60162069055,78.12660973472,524.6972,-76.2000,WGS84,0.9890,1.1303,2.3760,"",0.000,0.000,41,37,37,0,00,02,11,11*89912743
#BESTPOSA,FILE,0,6.5,FINESTEERING,2307,286840.450,02000000,cdba,17139;SOL_COMPUTED,SINGLE,17.60162252137,78.12660978635,524.6907,-76.2000,WGS84,0.9891,1.1362,2.3786,"",0.000,0.000,41,37,37,0,00,02,11,11*17a35c1b
#BESTPOSA,FILE,0,6.5,FINESTEERING,2307,286840.500,02000000,cdba,17139;SOL_COMPUTED,SINGLE,17.60162436669,78.12661005270,524.6672,-76.2000,WGS84,0.9894,1.1489,2.3843,"",0.000,0.000,41,37,37,0,00,02,11,11*8907f609
#BESTPOSA,FILE,0,6.5,FINESTEERING,2307,286840.550,02000000,cdba,17139;SOL_COMPUTED,SINGLE,17.60162627174,78.12660591735,524.9977,-76.2000,WGS84,0.9893,1.1363,2.3785,"",0.000,0.000,41,37,37,1,00,02,19,11*fee7ca78
#BESTPOSA,FILE,0,6.5,FINESTEERING,2307,286840.600,02000000,cdba,17139;SOL_COMPUTED,SINGLE,17.60162802251,78.12660852467,524.7964,-76.2000,WGS84,0.9893,1.1343,2.3776,"",0.000,0.000,41,37,37,0,00,02,11,11*4b30f218
#BESTPOSA,FILE,0,6.5,FINESTEERING,2307,286840.650,02000000,cdba,17139;SOL_COMPUTED,SINGLE,17.60162992055,78.12660870632,524.7785,-76.2000,WGS84,0.9893,1.1344,2.3776,"",0.000,0.000,41,37,37,0,00,02,11,11*648e1567
#BESTPOSA,FILE,0,6.5,FINESTEERING,2307,286840.700,02000000,cdba,17139;SOL_COMPUTED,SINGLE,17.60163178954,78.12660895896,524.7551,-76.2000,WGS84,0.9893,1.1387,2.3793,"",0.000,0.000,41,37,37,0,00,02,11,11*e93c9234
#BESTPOSA,FILE,0,6.5,FINESTEERING,2307,286840.750,02000000,cdba,17139;SOL_COMPUTED,SINGLE,17.60163366070,78.12660912077,524.7375,-76.2000,WGS84,0.9892,1.1387,2.3793,"",0.000,0.000,41,37,37,0,00,02,11,11*75fee9ca
#BESTPOSA,FILE,0,6.5,FINESTEERING,2307,286840.800,02000000,cdba,17139;SOL_COMPUTED,SINGLE,17.60163559421,78.12660943417,524.7055,-76.2000,WGS84,0.9892,1.1459,2.3818,"",0.000,0.000,41,37,37,0,00,02,11,11*6da52723
#BESTPOSA,FILE,0,6.5,FINESTEERING,2307,286840.850,02000000,cdba,17139;SOL_COMPUTED,SINGLE,17.60163760645,78.12660671619,524.9241,-76.2000,WGS84,0.9891,1.1412,2.3805,"",0.000,0.000,41,37,37,1,00,02,19,11*c1def885
#BESTPOSA,FILE,0,6.5,FINESTEERING,2307,286840.900,02000000,cdba,17139;SOL_COMPUTED,SINGLE,17.60163982430,78.12661012459,524.6816,-76.2000,WGS84,0.9959,1.1546,2.3841,"",0.000,0.000,40,36,36,0,00,02,11,11*fbb43e29
#BESTPOSA,FILE,0,6.5,FINESTEERING,2307,286840.950,02000000,cdba,17139;SOL_COMPUTED,SINGLE,17.60164135990,78.12660985028,524.6723,-76.2000,WGS84,0.9893,1.1513,2.3846,"",0.000,0.000,41,37,37,0,00,02,11,11*3ca3b164
#BESTPOSA,FILE,0,6.5,FINESTEERING,2307,286841.000,02000000,cdba,17139;SOL_COMPUTED,SINGLE,17.60164331794,78.12660992746,524.6526,-76.2000,WGS84,0.9893,1.1520,2.3850,"",0.000,0.000,41,37,37,0,00,02,11,11*7ef06809
#BESTPOSA,FILE,0,6.5,FINESTEERING,2307,286841.050,02000000,cdba,17139;SOL_COMPUTED,SINGLE,17.60164528312,78.12661004972,524.6401,-76.2000,WGS84,0.9894,1.1518,2.3851,"",0.000,0.000,41,37,37,0,00,02,11,11*b3326460
#BESTPOSA,FILE,0,6.5,FINESTEERING,2307,286841.100,02000000,cdba,17139;SOL_COMPUTED,SINGLE,17.60164724996,78.12661014445,524.6326,-76.2000,WGS84,0.9894,1.1504,2.3849,"",0.000,0.000,41,37,37,0,00,02,11,11*123593a2
#BESTPOSA,FILE,0,7.0,FINESTEERING,2307,286841.150,02000000,cdba,17139;SOL_COMPUTED,SINGLE,17.60164912613,78.12661010379,524.6458,-76.2000,WGS84,0.9886,1.1489,2.3829,"",0.000,0.000,42,38,38,0,00,02,11,11*26310010
#BESTPOSA,FILE,0,7.0,FINESTEERING,2307,286841.200,02000000,cdba,17139;SOL_COMPUTED,SINGLE,17.60165113450,78.12661015645,524.6326,-76.2000,WGS84,0.9887,1.1466,2.3823,"",0.000,0.000,42,38,38,0,00,02,11,11*95bba753
#BESTPOSA,FILE,0,7.0,FINESTEERING,2307,286841.250,02000000,cdba,17139;SOL_COMPUTED,SINGLE,17.60165311921,78.12661025387,524.6266,-76.2000,WGS84,0.9888,1.1457,2.3822,"",0.000,0.000,42,38,38,0,00,02,11,11*81b743ae
#BESTPOSA,FILE,0,7.0,FINESTEERING,2307,286841.300,02000000,cdba,17139;SOL_COMPUTED,SINGLE,17.60165515985,78.12661036505,524.6110,-76.2000,WGS84,0.9887,1.1450,2.3820,"",0.000,0.000,42,38,38,0,00,02,11,11*25d5adeb
#BESTPOSA,FILE,0,7.0,FINESTEERING,2307,286841.350,02000000,cdba,17139;SOL_COMPUTED,SINGLE,17.60165717511,78.12661049069,524.6014,-76.2000,WGS84,0.9888,1.1452,2.3821,"",0.000,0.000,42,38,38,0,00,02,11,11*10cd0d0d
#BESTPOSA,FILE,0,7.0,FINESTEERING,2307,286841.400,02000000,cdba,17139;SOL_COMPUTED,SINGLE,17.60165918884,78.12661051850,524.5982,-76.2000,WGS84,0.9888,1.1519,2.3851,"",0.000,0.000,42,38,38,0,00,02,11,11*2c1686c0
#BESTPOSA,FILE,0,7.0,FINESTEERING,2307,286841.450,02000000,cdba,17139;SOL_COMPUTED,SINGLE,17.60166123550,78.12661055988,524.5908,-76.2000,WGS84,0.9889,1.1519,2.3853,"",0.000,0.000,42,38,38,0,00,02,11,11*be19e7db
#BESTPOSA,FILE,0,7.0,FINESTEERING,2307,286841.500,02000000,cdba,17139;SOL_COMPUTED,SINGLE,17.60166336197,78.12661059298,524.5605,-76.2000,WGS84,0.9889,1.1517,2.3853,"",0.000,0.000,42,38,38,0,00,02,11,11*51474b71
#BESTPOSA,FILE,0,7.0,FINESTEERING,2307,286841.550,02000000,cdba,17139;SOL_COMPUTED,SINGLE,17.60166542689,78.12661064071,524.5590,-76.2000,WGS84,0.9889,1.1529,2.3861,"",0.000,0.000,42,38,38,0,00,02,11,11*e8d6787e
#BESTPOSA,FILE,0,7.0,FINESTEERING,2307,286841.600,02000000,cdba,17139;SOL_COMPUTED,SINGLE,17.60166751039,78.12661072883,524.5501,-76.2000,WGS84,0.9889,1.1502,2.3853,"",0.000,0.000,42,38,38,0,00,02,11,11*92da7f24
#BESTPOSA,FILE,0,7.0,FINESTEERING,2307,286841.650,02000000,cdba,17139;SOL_COMPUTED,SINGLE,17.60166959701,78.12661078427,524.5461,-76.2000,WGS84,0.9890,1.1493,2.3852,"",0.000,0.000,42,38,38,0,00,02,11,11*31d9269f
#BESTPOSA,FILE,0,7.0,FINESTEERING,2307,286841.700,02000000,cdba,17139;SOL_COMPUTED,SINGLE,17.60167170493,78.12661080323,524.5422,-76.2000,WGS84,0.9891,1.1502,2.3860,"",0.000,0.000,42,38,38,0,00,02,11,11*f2318c6f
#BESTPOSA,FILE,0,7.0,FINESTEERING,2307,286841.750,02000000,cdba,17139;SOL_COMPUTED,SINGLE,17.60167387893,78.12661083904,524.5242,-76.2000,WGS84,0.9893,1.1505,2.3867,"",0.000,0.000,42,38,38,0,00,02,11,11*bb114e63
#BESTPOSA,FILE,0,7.0,FINESTEERING,2307,286841.800,02000000,cdba,17139;SOL_COMPUTED,SINGLE,17.60167605643,78.12661112712,524.4950,-76.2000,WGS84,0.9892,1.1341,2.3798,"",0.000,0.000,42,38,38,0,00,02,11,11*69eba9d1
#BESTPOSA,FILE,0,7.0,FINESTEERING,2307,286841.850,02000000,cdba,17139;SOL_COMPUTED,SINGLE,17.60167823393,78.12661099086,524.5063,-76.2000,WGS84,0.9893,1.1336,2.3799,"",0.000,0.000,42,38,38,0,00,02,11,11*5bb6ed41
#BESTPOSA,FILE,0,7.0,FINESTEERING,2307,286841.900,02000000,cdba,17139;SOL_COMPUTED,SINGLE,17.60168040597,78.12661084432,524.5193,-76.2000,WGS84,0.9894,1.1347,2.3807,"",0.000,0.000,42,38,38,0,00,02,11,11*9d554e3f
#BESTPOSA,FILE,0,7.0,FINESTEERING,2307,286841.950,02000000,cdba,17139;SOL_COMPUTED,SINGLE,17.60168266568,78.12661073313,524.5193,-76.2000,WGS84,0.9895,1.1352,2.3811,"",0.000,0.000,42,38,38,0,00,02,11,11*73ec8434
#BESTPOSA,FILE,0,7.0,FINESTEERING,2307,286842.000,02000000,cdba,17139;SOL_COMPUTED,SINGLE,17.60168483914,78.12661054929,524.5490,-76.2000,WGS84,0.9890,1.1337,2.3796,"",0.000,0.000,42,38,38,0,00,02,11,11*38b04646
#BESTPOSA,FILE,0,7.0,FINESTEERING,2307,286842.050,02000000,cdba,17139;SOL_COMPUTED,SINGLE,17.60168547715,78.12660873222,524.9723,-76.2000,WGS84,0.9724,1.1188,2.3422,"",0.000,0.000,43,39,39,0,00,02,11,11*fb259024
#BESTPOSA,FILE,0,7.0,FINESTEERING,2307,286842.100,02000000,cdba,17139;SOL_COMPUTED,SINGLE,17.60168526652,78.12660593791,525.6199,-76.2000,WGS84,0.9454,1.0955,2.2824,"",0.000,0.000,43,39,39,0,00,02,11,11*a2e8d51f
#BESTPOSA,FILE,0,7.0,FINESTEERING,2307,286842.150,02000000,cdba,17139;SOL_COMPUTED,SINGLE,17.60168789086,78.12660314596,525.7997,-76.2000,WGS84,0.9457,1.0947,2.2833,"",0.000,0.000,43,39,39,1,00,02,19,11*a060cc30
#BESTPOSA,FILE,0,7.0,FINESTEERING,2307,286842.200,02000000,cdba,17139;SOL_COMPUTED,SINGLE,17.60169005798,78.12660603515,525.5678,-76.2000,WGS84,0.9459,1.1008,2.2848,"",0.000,0.000,43,39,39,0,00,02,11,11*33860fb8
#BESTPOSA,FILE,0,7.0,FINESTEERING,2307,286842.250,02000000,cdba,17139;SOL_COMPUTED,SINGLE,17.60169248075,78.12660597066,525.5528,-76.2000,WGS84,0.9461,1.1008,2.2855,"",0.000,0.000,43,39,39,0,00,02,11,11*50608b7b
#BESTPOSA,FILE,0,7.0,FINESTEERING,2307,286842.300,02000000,cdba,17139;SOL_COMPUTED,SINGLE,17.60169488364,78.12660584810,525.5505,-76.2000,WGS84,0.9457,1.1078,2.2868,"",0.000,0.000,43,39,39,0,00,02,11,11*08b9a74c
#BESTPOSA,FILE,0,7.0,FINESTEERING,2307,286842.350,02000000,cdba,17139;SOL_COMPUTED,SINGLE,17.60169729543,78.12660562892,525.5512,-76.2000,WGS84,0.9452,1.0996,2.2840,"",0.000,0.000,43,39,39,0,00,02,11,11*0f527229
#BESTPOSA,FILE,0,7.0,FINESTEERING,2307,286842.400,02000000,cdba,17139;SOL_COMPUTED,SINGLE,17.60169973441,78.12660557264,525.5309,-76.2000,WGS84,0.9446,1.1000,2.2830,"",0.000,0.000,43,39,39,0,00,02,11,11*5022cfae
#BESTPOSA,FILE,0,7.0,FINESTEERING,2307,286842.450,02000000,cdba,17139;SOL_COMPUTED,SINGLE,17.60170219849,78.12660551036,525.5200,-76.2000,WGS84,0.9446,1.1030,2.2837,"",0.000,0.000,43,39,39,0,00,02,11,11*2aa99b91
#BESTPOSA,FILE,0,7.0,FINESTEERING,2307,286842.500,02000000,cdba,17139;SOL_COMPUTED,SINGLE,17.60170469566,78.12660556524,525.5029,-76.2000,WGS84,0.9445,1.1029,2.2836,"",0.000,0.000,43,39,39,0,00,02,11,11*84ef99aa
#BESTPOSA,FILE,0,7.0,FINESTEERING,2307,286842.550,02000000,cdba,17139;SOL_COMPUTED,SINGLE,17.60170718168,78.12660557481,525.4804,-76.2000,WGS84,0.9443,1.1005,2.2825,"",0.000,0.000,43,39,39,0,00,02,11,11*153ffc1d
#BESTPOSA,FILE,0,7.0,FINESTEERING,2307,286842.600,02000000,cdba,17139;SOL_COMPUTED,SINGLE,17.60170967278,78.12660558095,525.4608,-76.2000,WGS84,0.9440,1.1007,2.2820,"",0.000,0.000,43,39,39,0,00,02,11,11*e1956fa0
#BESTPOSA,FILE,0,7.0,FINESTEERING,2307,286842.650,02000000,cdba,17139;SOL_COMPUTED,SINGLE,17.60171223971,78.12660555373,525.4378,-76.2000,WGS84,0.9440,1.1007,2.2820,"",0.000,0.000,43,39,39,0,00,02,11,11*98b0cd81
#BESTPOSA,FILE,0,7.0,FINESTEERING,2307,286842.700,02000000,cdba,17139;SOL_COMPUTED,SINGLE,17.60171478648,78.12660562944,525.4195,-76.2000,WGS84,0.9441,1.1004,2.2821,"",0.000,0.000,43,39,39,0,00,02,11,11*9333da41
#BESTPOSA,FILE,0,7.0,FINESTEERING,2307,286842.750,02000000,cdba,17139;SOL_COMPUTED,SINGLE,17.60171737344,78.12660567934,525.4026,-76.2000,WGS84,0.9439,1.1107,2.2847,"",0.000,0.000,43,39,39,0,00,02,11,11*45311cf7
#BESTPOSA,FILE,0,7.0,FINESTEERING,2307,286842.800,02000000,cdba,17139;SOL_COMPUTED,SINGLE,17.60172019771,78.12660310658,525.5590,-76.2000,WGS84,0.9440,1.0949,2.2801,"",0.000,0.000,43,39,39,1,00,02,19,11*fc074152
#BESTPOSA,FILE,0,7.0,FINESTEERING,2307,286842.850,02000000,cdba,17139;SOL_COMPUTED,SINGLE,17.60172242870,78.12660686443,525.2855,-76.2000,WGS84,0.9442,1.0862,2.2784,"",0.000,0.000,43,39,39,0,00,02,11,11*5288d489
#BESTPOSA,FILE,0,7.0,FINESTEERING,2307,286842.900,02000000,cdba,17139;SOL_COMPUTED,SINGLE,17.60172504927,78.12660689639,525.2629,-76.2000,WGS84,0.9442,1.0856,2.2781,"",0.000,0.000,43,39,39,0,00,02,11,11*15a57bde
#BESTPOSA,FILE,0,7.0,FINESTEERING,2307,286842.950,02000000,cdba,17139;SOL_COMPUTED,SINGLE,17.60172759039,78.12660678972,525.2775,-76.2000,WGS84,0.9434,1.0818,2.2751,"",0.000,0.000,43,39,39,0,00,02,11,11*456fa13d
#BESTPOSA,FILE,0,7.0,FINESTEERING,2307,286843.000,02000000,cdba,17139;SOL_COMPUTED,SINGLE,17.60172992715,78.12660153425,525.7845,-76.2000,WGS84,0.9307,1.1051,2.2421,"",0.000,0.000,43,38,38,1,00,02,19,11*2d79cf8e
#BESTPOSA,FILE,0,7.0,FINESTEERING,2307,286843.050,02000000,cdba,17139;SOL_COMPUTED,SINGLE,17.60173253288,78.12660165421,525.7675,-76.2000,WGS84,0.9309,1.1053,2.2425,"",0.000,0.000,42,38,38,1,00,02,19,11*5423d461
#BESTPOSA,FILE,0,7.0,FINESTEERING,2307,286843.100,02000000,cdba,17139;SOL_COMPUTED,SINGLE,17.60173518550,78.12660165398,525.7575,-76.2000,WGS84,0.9312,1.1055,2.2432,"",0.000,0.000,42,38,38,1,00,02,19,11*7ecc5001
#BESTPOSA,FILE,0,7.0,FINESTEERING,2307,286843.150,02000000,cdba,17139;SOL_COMPUTED,SINGLE,17.60173785067,78.12660166276,525.7457,-76.2000,WGS84,0.9316,1.1058,2.2440,"",0.000,0.000,43,38,38,1,00,02,19,11*0e7a0a42
#BESTPOSA,FILE,0,7.0,FINESTEERING,2307,286843.200,02000000,cdba,17139;SOL_COMPUTED,SINGLE,17.60174048717,78.12660171220,525.7352,-76.2000,WGS84,0.9318,1.1059,2.2444,"",0.000,0.000,43,38,38,1,00,02,19,11*c0d8b9af
#BESTPOSA,FILE,0,7.0,FINESTEERING,2307,286843.250,02000000,cdba,17139;SOL_COMPUTED,SINGLE,17.60174316624,78.12660174999,525.7298,-76.2000,WGS84,0.9319,1.1061,2.2448,"",0.000,0.000,43,38,38,1,00,02,19,11*25a70e5a
#BESTPOSA,FILE,0,7.0,FINESTEERING,2307,286843.300,02000000,cdba,17139;SOL_COMPUTED,SINGLE,17.60174575232,78.12660175946,525.7221,-76.2000,WGS84,0.9310,1.1050,2.2424,"",0.000,0.000,43,38,38,1,00,02,19,11*57672f80
#BESTPOSA,FILE,0,7.0,FINESTEERING,2307,286843.350,02000000,cdba,17139;SOL_COMPUTED,SINGLE,17.60174836964,78.12660177239,525.7131,-76.2000,WGS84,0.9306,1.1046,2.2414,"",0.000,0.000,43,38,38,1,00,02,19,11*6c6f8136
#BESTPOSA,FILE,0,7.0,FINESTEERING,2307,286843.400,02000000,cdba,17139;SOL_COMPUTED,SINGLE,17.60175104383,78.12660179019,525.6953,-76.2000,WGS84,0.9304,1.1045,2.2410,"",0.000,0.000,43,38,38,1,00,02,19,11*45ad59c2
#BESTPOSA,FILE,0,7.0,FINESTEERING,2307,286843.450,02000000,cdba,17139;SOL_COMPUTED,SINGLE,17.60175371979,78.12660178165,525.6956,-76.2000,WGS84,0.9302,1.1041,2.2404,"",0.000,0.000,43,38,38,1,00,02,19,11*832e1735
#BESTPOSA,FILE,0,7.0,FINESTEERING,2307,286843.500,02000000,cdba,17139;SOL_COMPUTED,SINGLE,17.60175636354,78.12660179548,525.6885,-76.2000,WGS84,0.9299,1.1039,2.2397,"",0.000,0.000,43,38,38,1,00,02,19,11*05c938d3
#BESTPOSA,FILE,0,7.0,FINESTEERING,2307,286843.550,02000000,cdba,17139;SOL_COMPUTED,SINGLE,17.60175904769,78.12660178353,525.6793,-76.2000,WGS84,0.9297,1.1035,2.2390,"",0.000,0.000,43,38,38,1,00,02,19,11*23b7aaae
#BESTPOSA,FILE,0,7.0,FINESTEERING,2307,286843.600,02000000,cdba,17139;SOL_COMPUTED,SINGLE,17.60176177413,78.12660177839,525.6606,-76.2000,WGS84,0.9295,1.1033,2.2386,"",0.000,0.000,43,38,38,1,00,02,19,11*42f2cff1
#BESTPOSA,FILE,0,7.0,FINESTEERING,2307,286843.650,02000000,cdba,17139;SOL_COMPUTED,SINGLE,17.60176446610,78.12660181651,525.6514,-76.2000,WGS84,0.9292,1.1030,2.2380,"",0.000,0.000,43,38,38,1,00,02,19,11*dbce50d6
#BESTPOSA,FILE,0,7.0,FINESTEERING,2307,286843.700,02000000,cdba,17139;SOL_COMPUTED,SINGLE,17.60176712927,78.12660175013,525.6515,-76.2000,WGS84,0.9290,1.1026,2.2373,"",0.000,0.000,43,38,38,1,00,02,19,11*d55fae7c
#BESTPOSA,FILE,0,7.0,FINESTEERING,2307,286843.750,02000000,cdba,17139;SOL_COMPUTED,SINGLE,17.60176985390,78.12660184446,525.6381,-76.2000,WGS84,0.9292,1.1018,2.2369,"",0.000,0.000,44,39,39,1,00,02,19,11*5dc5b184
#BESTPOSA,FILE,0,7.0,FINESTEERING,2307,286843.800,02000000,cdba,17139;SOL_COMPUTED,SINGLE,17.60177255874,78.12660181470,525.6366,-76.2000,WGS84,0.9293,1.1019,2.2370,"",0.000,0.000,44,39,39,1,00,02,19,11*9c2e070e
#BESTPOSA,FILE,0,7.0,FINESTEERING,2307,286843.850,02000000,cdba,17139;SOL_COMPUTED,SINGLE,17.60177523898,78.12660179376,525.6288,-76.2000,WGS84,0.9289,1.1013,2.2360,"",0.000,0.000,44,39,39,1,00,02,19,11*2f50da22
#BESTPOSA,FILE,0,7.0,FINESTEERING,2307,286843.900,02000000,cdba,17139;SOL_COMPUTED,SINGLE,17.60177800920,78.12660172185,525.6182,-76.2000,WGS84,0.9290,1.1006,2.2360,"",0.000,0.000,44,40,40,1,00,02,19,11*6e757550
#BESTPOSA,FILE,0,7.0,FINESTEERING,2307,286843.950,02000000,cdba,17139;SOL_COMPUTED,SINGLE,17.60178072575,78.12660165566,525.6180,-76.2000,WGS84,0.9291,1.0999,2.2359,"",0.000,0.000,45,41,41,1,00,02,19,11*6b486ab3
#BESTPOSA,FILE,0,7.0,FINESTEERING,2307,286844.000,02000000,cdba,17139;SOL_COMPUTED,SINGLE,17.60178344687,78.12660164103,525.6195,-76.2000,WGS84,0.9290,1.0997,2.2354,"",0.000,0.000,45,41,41,1,00,02,19,11*74bebe65
#BESTPOSA,FILE,0,7.0,FINESTEERING,2307,286844.050,02000000,cdba,17139;SOL_COMPUTED,SINGLE,17.60178614484,78.12660165993,525.6228,-76.2000,WGS84,0.9289,1.0996,2.2353,"",0.000,0.000,45,41,41,1,00,02,19,11*5faa5577
#BESTPOSA,FILE,0,6.0,FINESTEERING,2307,286844.100,02000000,cdba,17139;SOL_COMPUTED,SINGLE,17.60178887629,78.12660162550,525.6256,-76.2000,WGS84,0.9286,1.0992,2.2345,"",0.000,0.000,45,41,41,1,00,02,19,11*cf0b4a74
#BESTPOSA,FILE,0,6.0,FINESTEERING,2307,286844.150,02000000,cdba,17139;SOL_COMPUTED,SINGLE,17.60179163707,78.12660156962,525.6224,-76.2000,WGS84,0.9287,1.0992,2.2346,"",0.000,0.000,45,41,41,1,00,02,19,11*ac9a580c
#BESTPOSA,FILE,0,6.0,FINESTEERING,2307,286844.200,02000000,cdba,17139;SOL_COMPUTED,SINGLE,17.60179432241,78.12660194680,525.5863,-76.2000,WGS84,0.9287,1.0985,2.2339,"",0.000,0.000,45,41,41,2,00,02,19,11*725502fa
#BESTPOSA,FILE,0,6.0,FINESTEERING,2307,286844.250,02000000,cdba,17139;SOL_COMPUTED,SINGLE,17.60179705798,78.12660203242,525.5825,-76.2000,WGS84,0.9287,1.0984,2.2338,"",0.000,0.000,45,41,41,2,00,02,19,11*a95fbc06
#BESTPOSA,FILE,0,6.0,FINESTEERING,2307,286844.300,02000000,cdba,17139;SOL_COMPUTED,SINGLE,17.60179977075,78.12660208996,525.5797,-76.2000,WGS84,0.9284,1.0980,2.2332,"",0.000,0.000,45,41,41,2,00,02,19,11*b0aeb350
#BESTPOSA,FILE,0,6.0,FINESTEERING,2307,286844.350,02000000,cdba,17139;SOL_COMPUTED,SINGLE,17.60180259310,78.12660160430,525.6141,-76.2000,WGS84,0.9285,1.0986,2.2336,"",0.000,0.000,45,41,41,1,00,02,19,11*622a5cc9
#BESTPOSA,FILE,0,6.0,FINESTEERING,2307,286844.400,02000000,cdba,17139;SOL_COMPUTED,SINGLE,17.60180532166,78.12660156305,525.6145,-76.2000,WGS84,0.9286,1.0986,2.2338,"",0.000,0.000,45,41,41,1,00,02,19,11*e71cb318
#BESTPOSA,FILE,0,6.0,FINESTEERING,2307,286844.450,02000000,cdba,17139;SOL_COMPUTED,SINGLE,17.60180805582,78.12660152251,525.6166,-76.2000,WGS84,0.9285,1.0985,2.2337,"",0.000,0.000,45,41,41,1,00,02,19,11*cb70a5ae
#BESTPOSA,FILE,0,6.0,FINESTEERING,2307,286844.500,02000000,cdba,17139;SOL_COMPUTED,SINGLE,17.60181079282,78.12660147395,525.6155,-76.2000,WGS84,0.9285,1.0968,2.2309,"",0.000,0.000,46,42,42,1,00,02,19,11*df98b6be
#BESTPOSA,FILE,0,6.0,FINESTEERING,2307,286844.550,02000000,cdba,17139;SOL_COMPUTED,SINGLE,17.60181354592,78.12660144335,525.6156,-76.2000,WGS84,0.9285,1.0969,2.2309,"",0.000,0.000,46,42,42,1,00,02,19,11*364df4d8
#BESTPOSA,FILE,0,6.0,FINESTEERING,2307,286844.600,02000000,cdba,17139;SOL_COMPUTED,SINGLE,17.60181633043,78.12660149832,525.5951,-76.2000,WGS84,0.9283,1.0955,2.2295,"",0.000,0.000,46,42,42,1,00,02,19,11*1fcc2fe2
#BESTPOSA,FILE,0,6.0,FINESTEERING,2307,286844.650,02000000,cdba,17139;SOL_COMPUTED,SINGLE,17.60181882412,78.12660436322,525.2697,-76.2000,WGS84,0.9279,1.0743,2.2149,"",0.000,0.000,46,42,42,2,00,02,19,11*a531c5dd
#BESTPOSA,FILE,0,6.0,FINESTEERING,2307,286844.700,02000000,cdba,17139;SOL_COMPUTED,SINGLE,17.60182177438,78.12660408077,525.2603,-76.2000,WGS84,0.9273,1.0571,2.1995,"",0.000,0.000,46,42,42,1,00,02,19,11*3c5b6bf9
#BESTPOSA,FILE,0,6.0,FINESTEERING,2307,286844.750,02000000,cdba,17139;SOL_COMPUTED,SINGLE,17.60182457225,78.12660403853,525.2711,-76.2000,WGS84,0.9273,1.0570,2.1994,"",0.000,0.000,46,42,42,1,00,02,19,11*e4c6a753
#BESTPOSA,FILE,0,6.0,FINESTEERING,2307,286844.800,02000000,cdba,17139;SOL_COMPUTED,SINGLE,17.60182738476,78.12660389339,525.2936,-76.2000,WGS84,0.9275,1.0530,2.1993,"",0.000,0.000,46,42,42,1,00,02,19,11*ae4efe8c
#BESTPOSA,FILE,0,6.0,FINESTEERING,2307,286844.850,02000000,cdba,17139;SOL_COMPUTED,SINGLE,17.60183024251,78.12660357147,525.2975,-76.2000,WGS84,0.9261,1.0249,2.1935,"",0.000,0.000,46,42,42,1,00,02,19,11*4d8d9c12
#BESTPOSA,FILE,0,6.0,FINESTEERING,2307,286844.900,02000000,cdba,17139;SOL_COMPUTED,SINGLE,17.60183209761,78.12660985134,524.6319,-76.2000,WGS84,0.9254,1.0038,2.1838,"",0.000,0.000,46,42,42,2,00,02,19,11*c58c1938
#BESTPOSA,FILE,0,6.0,FINESTEERING,2307,286844.950,02000000,cdba,17139;SOL_COMPUTED,SINGLE,17.60183571302,78.12660392946,525.2501,-76.2000,WGS84,0.9252,1.0078,2.1852,"",0.000,0.000,46,42,42,1,00,02,19,11*e09e6b11
#BESTPOSA,FILE,0,6.0,FINESTEERING,2307,286845.000,02000000,cdba,17139;SOL_COMPUTED,SINGLE,17.60183852022,78.12660393882,525.2429,-76.2000,WGS84,0.9252,1.0076,2.1849,"",0.000,0.000,46,42,42,1,00,02,19,11*68870ee5
#BESTPOSA,FILE,0,6.0,FINESTEERING,2307,286845.050,02000000,cdba,17139;SOL_COMPUTED,SINGLE,17.60184087147,78.12660709645,525.0653,-76.2000,WGS84,0.9261,1.0367,2.1888,"",0.000,0.000,46,42,42,0,00,02,11,11*116b86f6
#BESTPOSA,FILE,0,5.0,FINESTEERING,2307,286845.100,02000000,cdba,17139;SOL_COMPUTED,SINGLE,17.60184370342,78.12660706853,525.0522,-76.2000,WGS84,0.9262,1.0367,2.1889,"",0.000,0.000,46,42,42,0,00,02,11,11*cea3540f
#BESTPOSA,FILE,0,5.0,FINESTEERING,2307,286845.150,02000000,cdba,17139;SOL_COMPUTED,SINGLE,17.60184654592,78.12660706561,525.0467,-76.2000,WGS84,0.9265,1.0365,2.1892,"",0.000,0.000,46,42,42,0,00,02,11,11*7e582330
#BESTPOSA,FILE,0,5.0,FINESTEERING,2307,286845.200,02000000,cdba,17139;SOL_COMPUTED,SINGLE,17.60184937708,78.12660708767,525.0463,-76.2000,WGS84,0.9266,1.0369,2.1896,"",0.000,0.000,46,42,42,0,00,02,11,11*15f8c39c
#BESTPOSA,FILE,0,5.0,FINESTEERING,2307,286845.250,02000000,cdba,17139;SOL_COMPUTED,SINGLE,17.60185221649,78.12660712998,525.0385,-76.2000,WGS84,0.9268,1.0362,2.1896,"",0.000,0.000,46,42,42,0,00,02,11,11*c0e3fd46
#BESTPOSA,FILE,0,5.0,FINESTEERING,2307,286845.300,02000000,cdba,17139;SOL_COMPUTED,SINGLE,17.60185449657,78.12661077808,524.6695,-76.2000,WGS84,0.9265,1.0312,2.1870,"",0.000,0.000,46,42,42,1,00,02,11,11*2723e497
#BESTPOSA,FILE,0,5.0,FINESTEERING,2307,286845.350,02000000,cdba,17139;SOL_COMPUTED,SINGLE,17.60185786727,78.12660720769,525.0282,-76.2000,WGS84,0.9263,1.0359,2.1887,"",0.000,0.000,46,42,42,0,00,02,11,11*5db8c5d8
#BESTPOSA,FILE,0,5.0,FINESTEERING,2307,286845.400,02000000,cdba,17139;SOL_COMPUTED,SINGLE,17.60186066444,78.12660719224,525.0237,-76.2000,WGS84,0.9260,1.0334,2.1838,"",0.000,0.000,46,42,42,0,00,02,11,11*b890c961
#BESTPOSA,FILE,0,5.0,FINESTEERING,2307,286845.450,02000000,cdba,17139;SOL_COMPUTED,SINGLE,17.60186349037,78.12660722769,525.0072,-76.2000,WGS84,0.9259,1.0020,2.1219,"",0.000,0.000,46,42,42,0,00,02,11,11*7bc8ebba
#BESTPOSA,FILE,0,5.0,FINESTEERING,2307,286845.500,02000000,cdba,17139;SOL_COMPUTED,SINGLE,17.60186632090,78.12660719934,525.0069,-76.2000,WGS84,0.9260,1.0019,2.1217,"",0.000,0.000,46,42,42,0,00,02,11,11*53e93eea
#BESTPOSA,FILE,0,5.0,FINESTEERING,2307,286845.550,02000000,cdba,17139;SOL_COMPUTED,SINGLE,17.60186917367,78.12660718190,525.0037,-76.2000,WGS84,0.9260,1.0017,2.1216,"",0.000,0.000,46,42,42,0,00,02,11,11*266dd8a3
#BESTPOSA,FILE,0,5.0,FINESTEERING,2307,286845.600,02000000,cdba,17139;SOL_COMPUTED,SINGLE,17.60187164437,78.12660916554,524.8244,-76.2000,WGS84,0.9255,0.9974,2.1197,"",0.000,0.000,46,42,42,1,00,02,11,11*654234a0
#BESTPOSA,FILE,0,5.0,FINESTEERING,2307,286845.650,02000000,cdba,17139;SOL_COMPUTED,SINGLE,17.60187452381,78.12660903219,524.8316,-76.2000,WGS84,0.9258,0.9974,2.1200,"",0.000,0.000,46,42,42,1,00,02,11,11*76bcdaee
#BESTPOSA,FILE,0,5.0,FINESTEERING,2307,286845.700,02000000,cdba,17139;SOL_COMPUTED,SINGLE,17.60187777535,78.12660711842,524.9712,-76.2000,WGS84,0.9254,1.0012,2.1207,"",0.000,0.000,46,42,42,0,00,02,11,11*a6db66b1
#BESTPOSA,FILE,0,5.0,FINESTEERING,2307,286845.750,02000000,cdba,17139;SOL_COMPUTED,SINGLE,17.60188033386,78.12660872287,524.8290,-76.2000,WGS84,0.9249,0.9969,2.1186,"",0.000,0.000,46,42,42,1,00,02,11,11*f94bc8ef
#BESTPOSA,FILE,0,5.0,FINESTEERING,2307,286845.800,02000000,cdba,17139;SOL_COMPUTED,SINGLE,17.60188347671,78.12660708177,524.9695,-76.2000,WGS84,0.9249,1.0007,2.1197,"",0.000,0.000,46,42,42,0,00,02,11,11*3bb1958c
#BESTPOSA,FILE,0,5.0,FINESTEERING,2307,286845.850,02000000,cdba,17139;SOL_COMPUTED,SINGLE,17.60188612055,78.12660843812,524.8476,-76.2000,WGS84,0.9247,0.9967,2.1183,"",0.000,0.000,46,42,42,1,00,02,11,11*3e859316
#BESTPOSA,FILE,0,5.0,FINESTEERING,2307,286845.900,02000000,cdba,17139;SOL_COMPUTED,SINGLE,17.60188921415,78.12660704285,524.9617,-76.2000,WGS84,0.9246,1.0003,2.1191,"",0.000,0.000,46,42,42,0,00,02,11,11*01c53677
#BESTPOSA,FILE,0,5.0,FINESTEERING,2307,286845.950,02000000,cdba,17139;SOL_COMPUTED,SINGLE,17.60189189377,78.12660808931,524.8520,-76.2000,WGS84,0.9244,0.9948,2.1176,"",0.000,0.000,46,42,42,1,00,02,11,11*f97691fa
#BESTPOSA,FILE,0,5.0,FINESTEERING,2307,286846.000,02000000,cdba,17139;SOL_COMPUTED,SINGLE,17.60189491177,78.12660696781,524.8998,-76.2000,WGS84,0.9234,0.9659,2.1155,"",0.000,0.000,46,42,42,1,00,02,11,11*fb23ea7e
#BESTPOSA,FILE,0,5.0,FINESTEERING,2307,286846.050,02000000,cdba,17139;SOL_COMPUTED,SINGLE,17.60189795744,78.12660595013,524.9833,-76.2000,WGS84,0.9232,0.9691,2.1161,"",0.000,0.000,46,42,42,0,00,02,11,11*7600793e
#BESTPOSA,FILE,0,5.0,FINESTEERING,2307,286846.100,02000000,cdba,17139;SOL_COMPUTED,SINGLE,17.60190068228,78.12660682044,524.9011,-76.2000,WGS84,0.9228,0.9653,2.1145,"",0.000,0.000,46,42,42,1,00,02,11,11*565b993c
#BESTPOSA,FILE,0,6.0,FINESTEERING,2307,286846.150,02000000,cdba,17139;SOL_COMPUTED,SINGLE,17.60190369422,78.12660596650,524.9711,-76.2000,WGS84,0.9226,0.9684,2.1151,"",0.000,0.000,46,42,42,0,00,02,11,11*01b78cbc
#BESTPOSA,FILE,0,6.0,FINESTEERING,2307,286846.200,02000000,cdba,17139;SOL_COMPUTED,SINGLE,17.60190657152,78.12660593490,524.9624,-76.2000,WGS84,0.9224,0.9682,2.1146,"",0.000,0.000,46,42,42,0,00,02,11,11*698cafcb
#BESTPOSA,FILE,0,6.0,FINESTEERING,2307,286846.250,02000000,cdba,17139;SOL_COMPUTED,SINGLE,17.60190942614,78.12660592556,524.9561,-76.2000,WGS84,0.9222,0.9678,2.1143,"",0.000,0.000,46,42,42,0,00,02,11,11*5c050a6f
#BESTPOSA,FILE,0,6.0,FINESTEERING,2307,286846.300,02000000,cdba,17139;SOL_COMPUTED,SINGLE,17.60191233783,78.12660590156,524.9551,-76.2000,WGS84,0.9225,0.9674,2.1143,"",0.000,0.000,46,42,42,0,00,02,11,11*d368878a
#BESTPOSA,FILE,0,6.0,FINESTEERING,2307,286846.350,02000000,cdba,17139;SOL_COMPUTED,SINGLE,17.60191516182,78.12660631524,524.9152,-76.2000,WGS84,0.9226,0.9646,2.1135,"",0.000,0.000,46,42,42,1,00,02,11,11*795c8eb1
#BESTPOSA,FILE,0,6.0,FINESTEERING,2307,286846.400,02000000,cdba,17139;SOL_COMPUTED,SINGLE,17.60191806718,78.12660618625,524.9212,-76.2000,WGS84,0.9227,0.9645,2.1136,"",0.000,0.000,46,42,42,1,00,02,11,11*24cb1d29
#BESTPOSA,FILE,0,6.0,FINESTEERING,2307,286846.450,02000000,cdba,17139;SOL_COMPUTED,SINGLE,17.60192101463,78.12660606430,524.9119,-76.2000,WGS84,0.9227,0.9641,2.1133,"",0.000,0.000,46,42,42,1,00,02,11,11*41bf1c96
#BESTPOSA,FILE,0,6.0,FINESTEERING,2307,286846.500,02000000,cdba,17139;SOL_COMPUTED,SINGLE,17.60192396140,78.12660563626,524.9443,-76.2000,WGS84,0.9226,0.9661,2.1136,"",0.000,0.000,46,42,42,0,00,02,11,11*7717152a
#BESTPOSA,FILE,0,6.0,FINESTEERING,2307,286846.550,02000000,cdba,17139;SOL_COMPUTED,SINGLE,17.60192683863,78.12660561288,524.9433,-76.2000,WGS84,0.9222,0.9658,2.1132,"",0.000,0.000,46,42,42,0,00,02,11,11*9cf43d82
#BESTPOSA,FILE,0,6.0,FINESTEERING,2307,286846.600,02000000,cdba,17139;SOL_COMPUTED,SINGLE,17.60192976235,78.12660556044,524.9518,-76.2000,WGS84,0.9222,0.9658,2.1131,"",0.000,0.000,46,42,42,0,00,02,11,11*2bc4822e
#BESTPOSA,FILE,0,6.0,FINESTEERING,2307,286846.650,02000000,cdba,17139;SOL_COMPUTED,SINGLE,17.60193264903,78.12660552143,524.9516,-76.2000,WGS84,0.9223,0.9654,2.1124,"",0.000,0.000,46,42,42,0,00,02,11,11*0133ba49
#BESTPOSA,FILE,0,6.0,FINESTEERING,2307,286846.700,02000000,cdba,17139;SOL_COMPUTED,SINGLE,17.60193558764,78.12660547569,524.9525,-76.2000,WGS84,0.9229,0.9651,2.1129,"",0.000,0.000,46,42,42,0,00,02,11,11*575e3a23
#BESTPOSA,FILE,0,6.0,FINESTEERING,2307,286846.750,02000000,cdba,17139;SOL_COMPUTED,SINGLE,17.60193846805,78.12660545957,524.9468,-76.2000,WGS84,0.9227,0.9628,2.1117,"",0.000,0.000,46,42,42,1,00,02,11,11*97bb05e2
#BESTPOSA,FILE,0,6.0,FINESTEERING,2307,286846.800,02000000,cdba,17139;SOL_COMPUTED,SINGLE,17.60194136858,78.12660541662,524.9417,-76.2000,WGS84,0.9221,0.9645,2.1112,"",0.000,0.000,46,42,42,0,00,02,11,11*9f6afc25
#BESTPOSA,FILE,0,6.0,FINESTEERING,2307,286846.850,02000000,cdba,17139;SOL_COMPUTED,SINGLE,17.60194431441,78.12660529085,524.9450,-76.2000,WGS84,0.9220,0.9620,2.1098,"",0.000,0.000,46,42,42,1,00,02,11,11*46356a80
#BESTPOSA,FILE,0,6.0,FINESTEERING,2307,286846.900,02000000,cdba,17139;SOL_COMPUTED,SINGLE,17.60194722508,78.12660521187,524.9453,-76.2000,WGS84,0.9217,0.9617,2.1091,"",0.000,0.000,46,42,42,1,00,02,11,11*76ef6fbc
#BESTPOSA,FILE,0,6.0,FINESTEERING,2307,286846.950,02000000,cdba,17139;SOL_COMPUTED,SINGLE,17.60195020642,78.12660510131,524.9450,-76.2000,WGS84,0.9219,0.9615,2.1090,"",0.000,0.000,46,42,42,1,00,02,11,11*9dba09c4
#BESTPOSA,FILE,0,6.0,FINESTEERING,2307,286847.000,02000000,cdba,17139;SOL_COMPUTED,SINGLE,17.60195308977,78.12660531571,524.9225,-76.2000,WGS84,0.9219,0.9631,2.1092,"",0.000,0.000,46,42,42,0,00,02,11,11*afb688cc
#BESTPOSA,FILE,0,6.0,FINESTEERING,2307,286847.050,02000000,cdba,17139;SOL_COMPUTED,SINGLE,17.60195609564,78.12660489954,524.9529,-76.2000,WGS84,0.9218,0.9610,2.1081,"",0.000,0.000,46,42,42,1,00,02,11,11*df0c81ad
#BESTPOSA,FILE,0,6.0,FINESTEERING,2307,286847.100,02000000,cdba,17139;SOL_COMPUTED,SINGLE,17.60195897551,78.12660529987,524.9138,-76.2000,WGS84,0.9220,0.9624,2.1088,"",0.000,0.000,46,42,42,0,00,02,11,11*9142bab3
#BESTPOSA,FILE,0,6.0,FINESTEERING,2307,286847.150,02000000,cdba,17139;SOL_COMPUTED,SINGLE,17.60196204087,78.12660472383,524.9617,-76.2000,WGS84,0.9224,0.9612,2.1091,"",0.000,0.000,46,42,42,1,00,02,11,11*3fe73f40
#BESTPOSA,FILE,0,6.0,FINESTEERING,2307,286847.200,02000000,cdba,17139;SOL_COMPUTED,SINGLE,17.60196499452,78.12660461190,524.9669,-76.2000,WGS84,0.9227,0.9612,2.1096,"",0.000,0.000,46,42,42,1,00,02,11,11*a9ee5a06
#BESTPOSA,FILE,0,6.0,FINESTEERING,2307,286847.250,02000000,cdba,17139;SOL_COMPUTED,SINGLE,17.60196958284,78.12660633439,524.5764,-76.2000,WGS84,0.9616,0.9776,2.1620,"",0.000,0.000,45,41,41,0,00,02,11,11*c474c1a1
#BESTPOSA,FILE,0,6.0,FINESTEERING,2307,286847.300,02000000,cdba,17139;SOL_COMPUTED,SINGLE,17.60197261340,78.12660549496,524.6410,-76.2000,WGS84,0.9617,0.9760,2.1616,"",0.000,0.000,45,41,41,1,00,02,11,11*af1cb0c7
#BESTPOSA,FILE,0,6.0,FINESTEERING,2307,286847.350,02000000,cdba,17139;SOL_COMPUTED,SINGLE,17.60197550439,78.12660624038,524.5551,-76.2000,WGS84,0.9619,0.9774,2.1623,"",0.000,0.000,45,41,41,0,00,02,11,11*3b86d0bd
#BESTPOSA,FILE,0,6.0,FINESTEERING,2307,286847.400,02000000,cdba,17139;SOL_COMPUTED,SINGLE,17.60197688030,78.12660517767,524.8533,-76.2000,WGS84,0.9206,0.9616,2.1072,"",0.000,0.000,46,42,42,0,00,02,11,11*de75ab24
#BESTPOSA,FILE,0,6.0,FINESTEERING,2307,286847.450,02000000,cdba,17139;SOL_COMPUTED,SINGLE,17.60198012032,78.12660438124,524.8950,-76.2000,WGS84,0.9250,0.9619,2.1124,"",0.000,0.000,46,42,42,1,00,02,11,11*753d0b28
#BESTPOSA,FILE,0,6.0,FINESTEERING,2307,286847.500,02000000,cdba,17139;SOL_COMPUTED,SINGLE,17.60197981051,78.12660095924,525.6354,-76.2000,WGS84,0.9266,0.9630,2.1150,"",0.000,0.000,46,42,42,2,00,02,11,11*4a64f61d
#BESTPOSA,FILE,0,6.0,FINESTEERING,2307,286847.550,02000000,cdba,17139;SOL_COMPUTED,SINGLE,17.60198262922,78.12660180988,525.5475,-76.2000,WGS84,0.9266,0.9640,2.1154,"",0.000,0.000,46,42,42,1,00,02,11,11*ac386ce5
