#BESTPOSA,FILE,0,12.5,FINESTEERING,2307,287062.150,02000800,cdba,17139;SOL_COMPUTED,NARROW_INT,17.60158165693,78.12660942490,527.4264,-76.2000,WGS84,0.0067,0.0080,0.0154,"0",4.150,0.000,43,39,39,36,00,21,7f,37*bbd06ddf
#BESTPOSA,FILE,0,12.5,FINESTEERING,2307,287062.300,02000800,cdba,17139;SOL_COMPUTED,NARROW_INT,17.60158164659,78.12660943139,527.4262,-76.2000,WGS84,0.0068,0.0081,0.0156,"0",4.300,0.000,43,39,39,36,00,21,7f,37*4dc57e8f
#BESTPOSA,FILE,0,12.5,FINESTEERING,2307,287062.500,02000800,cdba,17139;SOL_COMPUTED,NARROW_INT,17.60158164290,78.12660942769,527.4265,-76.2000,WGS84,0.0051,0.0058,0.0116,"0",1.500,0.000,43,39,39,36,00,21,7f,37*f049b520
#BESTPOSA,FILE,0,12.5,FINESTEERING,2307,287062.650,02000800,cdba,17139;SOL_COMPUTED,NARROW_INT,17.60158164697,78.12660941808,527.4271,-76.2000,WGS84,0.0052,0.0059,0.0118,"0",1.650,0.000,43,39,39,36,00,21,7f,37*569d66a8
#BESTPOSA,FILE,0,12.5,FINESTEERING,2307,287063.100,02000800,cdba,17139;SOL_COMPUTED,NARROW_INT,17.60158164723,78.12660942435,527.4255,-76.2000,WGS84,0.0055,0.0064,0.0126,"0",2.100,0.000,43,39,39,36,00,21,7f,37*0720de4b
#BESTPOSA,FILE,0,7.5,FINESTEERING,2307,287063.300,02000800,cdba,17139;SOL_COMPUTED,NARROW_INT,17.60158164733,78.12660942137,527.4255,-76.2000,WGS84,0.0056,0.0065,0.0128,"0",2.300,0.000,43,39,39,36,00,21,7f,37*fc5d697b
#BESTPOSA,FILE,0,7.5,FINESTEERING,2307,287063.500,02000800,cdba,17139;SOL_COMPUTED,NARROW_INT,17.60158164100,78.12660942627,527.4243,-76.2000,WGS84,0.0057,0.0067,0.0131,"0",2.500,0.000,43,39,39,36,00,21,7f,37*c6d2acdd
#BESTPOSA,FILE,0,7.5,FINESTEERING,2307,287063.900,02000800,cdba,17139;SOL_COMPUTED,NARROW_INT,17.60158164435,78.12660942029,527.4253,-76.2000,WGS84,0.0060,0.0070,0.0136,"0",2.900,0.000,43,39,39,36,00,21,7f,37*acb7bf1f
#BESTPOSA,FILE,0,7.5,FINESTEERING,2307,287064.100,02000800,cdba,17139;SOL_COMPUTED,NARROW_INT,17.60158165150,78.12660942823,527.4258,-76.2000,WGS84,0.0061,0.0072,0.0140,"0",3.100,0.000,43,39,39,36,00,21,7f,37*2cc640da
#BESTPOSA,FILE,0,7.5,FINESTEERING,2307,287064.650,02000800,cdba,17139;SOL_COMPUTED,NARROW_INT,17.60158164290,78.12660941231,527.4268,-76.2000,WGS84,0.0064,0.0075,0.0147,"0",3.650,0.000,43,39,39,36,00,21,7f,37*36552c7e
#BESTPOSA,FILE,0,13.5,FINESTEERING,2307,287064.850,02000800,cdba,17139;SOL_COMPUTED,NARROW_INT,17.60158163940,78.12660941098,527.4261,-76.2000,WGS84,0.0065,0.0076,0.0149,"0",3.850,0.000,43,39,39,36,00,21,7f,37*6f337111
#BESTPOSA,FILE,0,12.5,FINESTEERING,2307,287065.450,02000800,cdba,17139;SOL_COMPUTED,NARROW_INT,17.60158164705,78.12660941286,527.4265,-76.2000,WGS84,0.0069,0.0081,0.0157,"0",4.450,0.000,43,39,39,36,00,21,7f,37*b0f9dc8b
#BESTPOSA,FILE,0,12.5,FINESTEERING,2307,287065.500,02000800,cdba,17139;SOL_COMPUTED,NARROW_INT,17.60158164697,78.12660941448,527.4266,-76.2000,WGS84,0.0069,0.0081,0.0157,"0",4.500,0.000,43,39,39,36,00,21,7f,37*889c46da
#BESTPOSA,FILE,0,12.5,FINESTEERING,2307,287065.550,02000800,cdba,17139;SOL_COMPUTED,NARROW_INT,17.60158164426,78.12660941717,527.4267,-76.2000,WGS84,0.0069,0.0081,0.0158,"0",4.550,0.000,43,39,39,36,00,21,7f,37*85eadafa
#BESTPOSA,FILE,0,12.5,FINESTEERING,2307,287065.600,02000800,cdba,17139;SOL_COMPUTED,NARROW_INT,17.60158164670,78.12660941926,527.4260,-76.2000,WGS84,0.0069,0.0082,0.0158,"0",4.600,0.000,43,39,39,36,00,21,7f,37*5af0c160
#BESTPOSA,FILE,0,12.5,FINESTEERING,2307,287065.650,02000800,cdba,17139;SOL_COMPUTED,NARROW_INT,17.60158164922,78.12660941450,527.4261,-76.2000,WGS84,0.0070,0.0082,0.0159,"0",4.650,0.000,43,39,39,36,00,21,7f,37*edcf627a
#BESTPOSA,FILE,0,12.5,FINESTEERING,2307,287065.850,02000800,cdba,17139;SOL_COMPUTED,NARROW_INT,17.60158164122,78.12660941437,527.4264,-76.2000,WGS84,0.0071,0.0083,0.0161,"0",4.850,0.000,43,39,39,36,00,21,7f,37*3a5c94d3
#BESTPOSA,FILE,0,12.5,FINESTEERING,2307,287065.950,02000800,cdba,17139;SOL_COMPUTED,NARROW_INT,17.60158164099,78.12660942188,527.4263,-76.2000,WGS84,0.0071,0.0084,0.0162,"0",4.950,0.000,43,39,39,36,00,21,7f,37*820efe5f
#BESTPOSA,FILE,0,12.5,FINESTEERING,2307,287066.000,02000800,cdba,17139;SOL_COMPUTED,NARROW_INT,17.60158164319,78.12660941725,527.4258,-76.2000,WGS84,0.0071,0.0084,0.0163,"0",5.000,0.000,43,39,39,36,00,21,7f,37*4a3505b5
#BESTPOSA,FILE,0,12.5,FINESTEERING,2307,287066.050,02000800,cdba,17139;SOL_COMPUTED,NARROW_INT,17.60158164602,78.12660942054,527.4237,-76.2000,WGS84,0.0072,0.0085,0.0164,"0",5.050,0.000,43,39,39,36,00,21,7f,37*1eb7141a
#BESTPOSA,FILE,0,12.5,FINESTEERING,2307,287066.150,02000800,cdba,17139;SOL_COMPUTED,NARROW_INT,17.60158165046,78.12660942265,527.4241,-76.2000,WGS84,0.0072,0.0085,0.0165,"0",5.150,0.000,43,39,39,36,00,21,7f,37*9d8dc869
#BESTPOSA,FILE,0,14.0,FINESTEERING,2307,287066.300,02000800,cdba,17139;SOL_COMPUTED,NARROW_INT,17.60158165008,78.12660941747,527.4229,-76.2000,WGS84,0.0073,0.0086,0.0167,"0",5.300,0.000,43,39,39,36,00,21,7f,37*c438faae
#BESTPOSA,FILE,0,14.0,FINESTEERING,2307,287066.350,02000800,cdba,17139;SOL_COMPUTED,NARROW_INT,17.60158164875,78.12660941947,527.4238,-76.2000,WGS84,0.0073,0.0086,0.0167,"0",5.350,0.000,43,39,39,36,00,21,7f,37*47bfca2b
#BESTPOSA,FILE,0,14.0,FINESTEERING,2307,287066.400,02000800,cdba,17139;SOL_COMPUTED,NARROW_INT,17.60158164515,78.12660941480,527.4239,-76.2000,WGS84,0.0074,0.0087,0.0168,"0",5.400,0.000,43,39,39,36,00,21,7f,37*8938a2b3
#BESTPOSA,FILE,0,14.0,FINESTEERING,2307,287066.450,02000800,cdba,17139;SOL_COMPUTED,NARROW_INT,17.60158164714,78.12660941101,527.4257,-76.2000,WGS84,0.0074,0.0087,0.0168,"0",5.450,0.000,43,39,39,36,00,21,7f,37*ce05fe30
#BESTPOSA,FILE,0,14.0,FINESTEERING,2307,287066.500,02000800,cdba,17139;SOL_COMPUTED,NARROW_INT,17.60158164939,78.12660942492,527.4241,-76.2000,WGS84,0.0074,0.0087,0.0169,"0",5.500,0.000,43,39,39,36,00,21,7f,37*5bef5147
#BESTPOSA,FILE,0,14.0,FINESTEERING,2307,287066.550,02000800,cdba,17139;SOL_COMPUTED,NARROW_INT,17.60158165297,78.12660942208,527.4250,-76.2000,WGS84,0.0074,0.0087,0.0169,"0",5.550,0.000,43,39,39,36,00,21,7f,37*cf84bfd1
#BESTPOSA,FILE,0,14.0,FINESTEERING,2307,287066.600,02000800,cdba,17139;SOL_COMPUTED,NARROW_INT,17.60158165062,78.12660941825,527.4246,-76.2000,WGS84,0.0074,0.0088,0.0170,"0",5.600,0.000,43,39,39,36,00,21,7f,37*4d3822e6
#BESTPOSA,FILE,0,14.0,FINESTEERING,2307,287066.650,02000800,cdba,17139;SOL_COMPUTED,NARROW_INT,17.60158165175,78.12660942608,527.4235,-76.2000,WGS84,0.0075,0.0088,0.0170,"0",5.650,0.000,43,39,39,36,00,21,7f,37*424448ee
#BESTPOSA,FILE,0,14.0,FINESTEERING,2307,287066.700,02000800,cdba,17139;SOL_COMPUTED,NARROW_INT,17.60158165315,78.12660942633,527.4235,-76.2000,WGS84,0.0075,0.0088,0.0171,"0",5.700,0.000,43,39,39,36,00,21,7f,37*fb23ad62
#BESTPOSA,FILE,0,14.0,FINESTEERING,2307,287066.750,02000800,cdba,17139;SOL_COMPUTED,NARROW_INT,17.60158164954,78.12660943351,527.4237,-76.2000,WGS84,0.0075,0.0088,0.0171,"0",5.750,0.000,43,39,39,36,00,21,7f,37*0d44ad6b
#BESTPOSA,FILE,0,14.0,FINESTEERING,2307,287066.800,02000800,cdba,17139;SOL_COMPUTED,NARROW_INT,17.60158164458,78.12660942717,527.4243,-76.2000,WGS84,0.0075,0.0089,0.0172,"0",5.800,0.000,43,39,39,36,00,21,7f,37*6fd0b786
#BESTPOSA,FILE,0,14.0,FINESTEERING,2307,287066.850,02000800,cdba,17139;SOL_COMPUTED,NARROW_INT,17.60158164500,78.12660942338,527.4242,-76.2000,WGS84,0.0076,0.0089,0.0172,"0",5.850,0.000,43,39,39,36,00,21,7f,37*da4f3e61
#BESTPOSA,FILE,0,14.0,FINESTEERING,2307,287066.900,02000800,cdba,17139;SOL_COMPUTED,NARROW_INT,17.60158164859,78.12660941965,527.4231,-76.2000,WGS84,0.0076,0.0089,0.0173,"0",5.900,0.000,43,39,39,36,00,21,7f,37*5b7053a1
#BESTPOSA,FILE,0,14.0,FINESTEERING,2307,287066.950,02000800,cdba,17139;SOL_COMPUTED,NARROW_INT,17.60158164864,78.12660941839,527.4242,-76.2000,WGS84,0.0076,0.0090,0.0173,"0",5.950,0.000,43,39,39,36,00,21,7f,37*498acdbf
#BESTPOSA,FILE,0,14.0,FINESTEERING,2307,287067.000,02000800,cdba,17139;SOL_COMPUTED,NARROW_INT,17.60158165633,78.12660942257,527.4231,-76.2000,WGS84,0.0076,0.0090,0.0174,"0",6.000,0.000,43,39,39,36,00,21,7f,37*4cb2d769
#BESTPOSA,FILE,0,14.0,FINESTEERING,2307,287067.050,02000800,cdba,17139;SOL_COMPUTED,NARROW_INT,17.60158165705,78.12660940950,527.4244,-76.2000,WGS84,0.0077,0.0091,0.0175,"0",6.050,0.000,43,39,39,36,00,21,7f,37*907b2a39
#BESTPOSA,FILE,0,14.0,FINESTEERING,2307,287067.100,02000800,cdba,17139;SOL_COMPUTED,NARROW_INT,17.60158165831,78.12660941082,527.4236,-76.2000,WGS84,0.0077,0.0091,0.0175,"0",6.100,0.000,43,39,39,36,00,21,7f,37*7e73b298
#BESTPOSA,FILE,0,9.0,FINESTEERING,2307,287067.300,02000800,cdba,17139;SOL_COMPUTED,NARROW_INT,17.60158167368,78.12660941305,527.4238,-76.2000,WGS84,0.0078,0.0092,0.0177,"0",6.300,0.000,43,39,39,36,00,21,7f,37*972b4e2c
#BESTPOSA,FILE,0,9.0,FINESTEERING,2307,287067.350,02000800,cdba,17139;SOL_COMPUTED,NARROW_INT,17.60158170114,78.12660940796,527.4227,-76.2000,WGS84,0.0078,0.0092,0.0178,"0",6.350,0.000,44,39,39,36,00,21,7f,37*7bb5f68c
#BESTPOSA,FILE,0,9.0,FINESTEERING,2307,287067.400,02000800,cdba,17139;SOL_COMPUTED,NARROW_INT,17.60158173205,78.12660940411,527.4217,-76.2000,WGS84,0.0078,0.0093,0.0178,"0",6.400,0.000,43,39,39,36,00,21,7f,37*8151643c
#BESTPOSA,FILE,0,9.0,FINESTEERING,2307,287067.450,02000800,cdba,17139;SOL_COMPUTED,NARROW_INT,17.60158177922,78.12660940400,527.4217,-76.2000,WGS84,0.0079,0.0093,0.0179,"0",6.450,0.000,43,39,39,36,00,21,7f,37*77fb76ca
#BESTPOSA,FILE,0,9.0,FINESTEERING,2307,287067.500,02000800,cdba,17139;SOL_COMPUTED,NARROW_INT,17.60158182357,78.12660941398,527.4212,-76.2000,WGS84,0.0079,0.0093,0.0179,"0",6.500,0.000,43,39,39,36,00,21,7f,37*f428a559
#BESTPOSA,FILE,0,9.0,FINESTEERING,2307,287067.550,02000800,cdba,17139;SOL_COMPUTED,NARROW_INT,17.60158188467,78.12660940263,527.4222,-76.2000,WGS84,0.0079,0.0093,0.0180,"0",6.550,0.000,43,39,39,36,00,21,7f,37*6d36702d
#BESTPOSA,FILE,0,9.0,FINESTEERING,2307,287067.600,02000800,cdba,17139;SOL_COMPUTED,NARROW_INT,17.60158195362,78.12660939646,527.4224,-76.2000,WGS84,0.0079,0.0094,0.0180,"0",6.600,0.000,43,39,39,36,00,21,7f,37*8276a466
#BESTPOSA,FILE,0,9.0,FINESTEERING,2307,287067.650,02000800,cdba,17139;SOL_COMPUTED,NARROW_INT,17.60158202553,78.12660939167,527.4209,-76.2000,WGS84,0.0079,0.0094,0.0181,"0",6.650,0.000,43,39,39,36,00,21,7f,37*bcb50761
#BESTPOSA,FILE,0,9.0,FINESTEERING,2307,287067.700,02000800,cdba,17139;SOL_COMPUTED,NARROW_INT,17.60158210422,78.12660939143,527.4219,-76.2000,WGS84,0.0080,0.0094,0.0181,"0",6.700,0.000,43,39,39,36,00,21,7f,37*735bcce3
#BESTPOSA,FILE,0,9.0,FINESTEERING,2307,287067.750,02000800,cdba,17139;SOL_COMPUTED,NARROW_INT,17.60158219020,78.12660938048,527.4211,-76.2000,WGS84,0.0080,0.0094,0.0182,"0",6.750,0.000,43,39,39,36,00,21,7f,37*224263f6
#BESTPOSA,FILE,0,9.0,FINESTEERING,2307,287067.800,02000800,cdba,17139;SOL_COMPUTED,NARROW_INT,17.60158228272,78.12660938160,527.4211,-76.2000,WGS84,0.0080,0.0095,0.0182,"0",6.800,0.000,43,39,39,36,00,21,7f,37*70a19b03
#BESTPOSA,FILE,0,9.0,FINESTEERING,2307,287067.850,02000800,cdba,17139;SOL_COMPUTED,NARROW_INT,17.60158238951,78.12660937648,527.4222,-76.2000,WGS84,0.0080,0.0095,0.0183,"0",6.850,0.000,43,39,39,36,00,21,7f,37*ef85667e
#BESTPOSA,FILE,0,9.0,FINESTEERING,2307,287067.900,02000800,cdba,17139;SOL_COMPUTED,NARROW_INT,17.60158248846,78.12660936996,527.4229,-76.2000,WGS84,0.0080,0.0095,0.0183,"0",6.900,0.000,43,39,39,36,00,21,7f,37*38613923
#BESTPOSA,FILE,0,9.0,FINESTEERING,2307,287067.950,02000800,cdba,17139;SOL_COMPUTED,NARROW_INT,17.60158260462,78.12660936738,527.4237,-76.2000,WGS84,0.0081,0.0095,0.0184,"0",6.950,0.000,43,38,38,36,00,21,7f,37*83f4cc34
#BESTPOSA,FILE,0,9.0,FINESTEERING,2307,287068.000,02000800,cdba,17139;SOL_COMPUTED,NARROW_INT,17.60158272551,78.12660936652,527.4240,-76.2000,WGS84,0.0081,0.0096,0.0184,"0",7.000,0.000,43,38,38,36,00,21,7f,37*385b95c0
#BESTPOSA,FILE,0,9.0,FINESTEERING,2307,287068.050,02000800,cdba,17139;SOL_COMPUTED,NARROW_INT,17.60158286124,78.12660936384,527.4242,-76.2000,WGS84,0.0081,0.0096,0.0185,"0",7.050,0.000,42,38,38,36,00,21,7f,37*3b9bff56
#BESTPOSA,FILE,0,9.0,FINESTEERING,2307,287068.100,02000800,cdba,17139;SOL_COMPUTED,NARROW_INT,17.60158299762,78.12660936327,527.4255,-76.2000,WGS84,0.0082,0.0097,0.0186,"0",7.100,0.000,42,38,38,36,00,21,7f,37*52801b49
#BESTPOSA,FILE,0,2.0,FINESTEERING,2307,287068.200,02000800,cdba,17139;SOL_COMPUTED,NARROW_INT,17.60158328689,78.12660934546,527.4250,-76.2000,WGS84,0.0082,0.0097,0.0187,"0",7.200,0.000,42,38,38,36,00,21,7f,37*75248608
#BESTPOSA,FILE,0,2.0,FINESTEERING,2307,287068.300,02000800,cdba,17139;SOL_COMPUTED,NARROW_INT,17.60158359490,78.12660933413,527.4236,-76.2000,WGS84,0.0082,0.0098,0.0188,"0",7.300,0.000,42,38,38,36,00,21,7f,37*ddc121d1
#BESTPOSA,FILE,0,2.0,FINESTEERING,2307,287068.350,02000800,cdba,17139;SOL_COMPUTED,NARROW_INT,17.60158376571,78.12660932051,527.4220,-76.2000,WGS84,0.0083,0.0098,0.0188,"0",7.350,0.000,42,38,38,36,00,21,7f,37*e47a3a8b
#BESTPOSA,FILE,0,2.0,FINESTEERING,2307,287068.400,02000800,cdba,17139;SOL_COMPUTED,NARROW_INT,17.60158395156,78.12660930813,527.4229,-76.2000,WGS84,0.0083,0.0098,0.0189,"0",7.400,0.000,42,38,38,36,00,21,7f,37*83ca21b5
#BESTPOSA,FILE,0,2.0,FINESTEERING,2307,287068.450,02000800,cdba,17139;SOL_COMPUTED,NARROW_INT,17.60158413280,78.12660929373,527.4233,-76.2000,WGS84,0.0083,0.0098,0.0189,"0",7.450,0.000,42,38,38,36,00,21,7f,37*eeae6894
#BESTPOSA,FILE,0,2.0,FINESTEERING,2307,287068.500,02000800,cdba,17139;SOL_COMPUTED,NARROW_INT,17.60158431581,78.12660929414,527.4245,-76.2000,WGS84,0.0083,0.0099,0.0190,"0",7.500,0.000,42,38,38,36,00,21,7f,37*4acbc930
#BESTPOSA,FILE,0,2.0,FINESTEERING,2307,287068.550,02000800,cdba,17139;SOL_COMPUTED,NARROW_INT,17.60158450004,78.12660929019,527.4235,-76.2000,WGS84,0.0083,0.0099,0.0190,"0",7.550,0.000,42,38,38,36,00,21,7f,37*ece7998e
#BESTPOSA,FILE,0,2.0,FINESTEERING,2307,287068.600,02000800,cdba,17139;SOL_COMPUTED,NARROW_INT,17.60158469755,78.12660928923,527.4234,-76.2000,WGS84,0.0084,0.0099,0.0190,"0",7.600,0.000,42,38,38,36,00,21,7f,37*f42e5c23
#BESTPOSA,FILE,0,2.0,FINESTEERING,2307,287068.650,02000800,cdba,17139;SOL_COMPUTED,NARROW_INT,17.60158490916,78.12660927983,527.4235,-76.2000,WGS84,0.0084,0.0099,0.0191,"0",7.650,0.000,42,38,38,36,00,21,7f,37*58626444
#BESTPOSA,FILE,0,2.0,FINESTEERING,2307,287068.700,02000800,cdba,17139;SOL_COMPUTED,NARROW_INT,17.60158513696,78.12660925785,527.4239,-76.2000,WGS84,0.0084,0.0100,0.0191,"0",7.700,0.000,42,38,38,36,00,21,7f,37*d2fb0a58
#BESTPOSA,FILE,0,2.0,FINESTEERING,2307,287068.750,02000800,cdba,17139;SOL_COMPUTED,NARROW_INT,17.60158536954,78.12660924462,527.4226,-76.2000,WGS84,0.0084,0.0100,0.0192,"0",7.750,0.000,42,38,38,36,00,21,7f,37*aac2a475
#BESTPOSA,FILE,0,2.0,FINESTEERING,2307,287068.800,02000800,cdba,17139;SOL_COMPUTED,NARROW_INT,17.60158560297,78.12660923438,527.4206,-76.2000,WGS84,0.0084,0.0100,0.0192,"0",7.800,0.000,42,38,38,36,00,21,7f,37*00814bfc
#BESTPOSA,FILE,0,2.0,FINESTEERING,2307,287068.850,02000800,cdba,17139;SOL_COMPUTED,NARROW_INT,17.60158584248,78.12660922033,527.4217,-76.2000,WGS84,0.0085,0.0100,0.0193,"0",7.850,0.000,42,38,38,36,00,21,7f,37*7dd68caa
#BESTPOSA,FILE,0,2.0,FINESTEERING,2307,287068.900,02000800,cdba,17139;SOL_COMPUTED,NARROW_INT,17.60158608667,78.12660920993,527.4223,-76.2000,WGS84,0.0085,0.0100,0.0193,"0",7.900,0.000,42,38,38,36,00,21,7f,37*06da0e37
#BESTPOSA,FILE,0,2.0,FINESTEERING,2307,287068.950,02000800,cdba,17139;SOL_COMPUTED,NARROW_INT,17.60158633840,78.12660920724,527.4250,-76.2000,WGS84,0.0085,0.0101,0.0194,"0",7.950,0.000,42,38,38,36,00,21,7f,37*d970d731
#BESTPOSA,FILE,0,2.0,FINESTEERING,2307,287069.000,02000800,cdba,17139;SOL_COMPUTED,NARROW_INT,17.60158660474,78.12660920121,527.4261,-76.2000,WGS84,0.0085,0.0101,0.0194,"0",8.000,0.000,42,38,38,36,00,21,7f,37*fa03ea51
#BESTPOSA,FILE,0,2.0,FINESTEERING,2307,287069.050,02000800,cdba,17139;SOL_COMPUTED,NARROW_INT,17.60158688838,78.12660919210,527.4264,-76.2000,WGS84,0.0086,0.0102,0.0195,"0",8.050,0.000,42,38,38,36,00,21,7f,37*6aafd354
#BESTPOSA,FILE,0,2.0,FINESTEERING,2307,287069.100,02000800,cdba,17139;SOL_COMPUTED,NARROW_INT,17.60158717556,78.12660917558,527.4256,-76.2000,WGS84,0.0086,0.0102,0.0196,"0",8.100,0.000,42,38,38,36,00,21,7f,37*58fb8f77
#BESTPOSA,FILE,0,2.0,FINESTEERING,2307,287069.200,02000800,cdba,17139;SOL_COMPUTED,NARROW_INT,17.60158775716,78.12660915328,527.4245,-76.2000,WGS84,0.0086,0.0102,0.0197,"0",8.200,0.000,43,38,38,36,00,21,7f,37*72839003
#BESTPOSA,FILE,0,2.0,FINESTEERING,2307,287069.300,02000800,cdba,17139;SOL_COMPUTED,NARROW_INT,17.60158835813,78.12660912464,527.4294,-76.2000,WGS84,0.0087,0.0103,0.0198,"0",8.300,0.000,43,38,38,36,00,21,7f,37*0b235c1d
#BESTPOSA,FILE,0,2.0,FINESTEERING,2307,287069.350,02000800,cdba,17139;SOL_COMPUTED,NARROW_INT,17.60158868662,78.12660909846,527.4284,-76.2000,WGS84,0.0087,0.0103,0.0198,"0",8.350,0.000,43,38,38,36,00,21,7f,37*dc8e541d
#BESTPOSA,FILE,0,2.0,FINESTEERING,2307,287069.400,02000800,cdba,17139;SOL_COMPUTED,NARROW_INT,17.60158902556,78.12660908743,527.4289,-76.2000,WGS84,0.0087,0.0103,0.0199,"0",8.400,0.000,43,38,38,36,00,21,7f,37*edb0dda3
#BESTPOSA,FILE,0,2.0,FINESTEERING,2307,287069.450,02000800,cdba,17139;SOL_COMPUTED,NARROW_INT,17.60158938148,78.12660907379,527.4295,-76.2000,WGS84,0.0088,0.0104,0.0199,"0",8.450,0.000,42,38,38,36,00,21,7f,37*019d4cf3
#BESTPOSA,FILE,0,2.0,FINESTEERING,2307,287069.500,02000800,cdba,17139;SOL_COMPUTED,NARROW_INT,17.60158973908,78.12660905100,527.4298,-76.2000,WGS84,0.0088,0.0104,0.0200,"0",8.500,0.000,42,38,38,36,00,21,7f,37*3325813a
#BESTPOSA,FILE,0,2.0,FINESTEERING,2307,287069.550,02000800,cdba,17139;SOL_COMPUTED,NARROW_INT,17.60159010529,78.12660903950,527.4319,-76.2000,WGS84,0.0088,0.0104,0.0200,"0",8.550,0.000,42,38,38,36,00,21,7f,37*376d0d59
#BESTPOSA,FILE,0,2.0,FINESTEERING,2307,287069.600,02000800,cdba,17139;SOL_COMPUTED,NARROW_INT,17.60159049207,78.12660902501,527.4315,-76.2000,WGS84,0.0088,0.0104,0.0201,"0",8.600,0.000,42,38,38,36,00,21,7f,37*bc170912
#BESTPOSA,FILE,0,2.0,FINESTEERING,2307,287069.650,02000800,cdba,17139;SOL_COMPUTED,NARROW_INT,17.60159090273,78.12660899827,527.4306,-76.2000,WGS84,0.0088,0.0105,0.0201,"0",8.650,0.000,42,38,38,36,00,21,7f,37*f7edbc8e
#BESTPOSA,FILE,0,2.0,FINESTEERING,2307,287069.700,02000800,cdba,17139;SOL_COMPUTED,NARROW_INT,17.60159133353,78.12660895972,527.4328,-76.2000,WGS84,0.0089,0.0105,0.0201,"0",8.700,0.000,42,38,38,36,00,21,7f,37*2ddbf38e
#BESTPOSA,FILE,0,2.0,FINESTEERING,2307,287069.750,02000800,cdba,17139;SOL_COMPUTED,NARROW_INT,17.60159178181,78.12660894536,527.4342,-76.2000,WGS84,0.0089,0.0105,0.0202,"0",8.750,0.000,42,38,38,36,00,21,7f,37*b371f576
#BESTPOSA,FILE,0,2.0,FINESTEERING,2307,287069.800,02000800,cdba,17139;SOL_COMPUTED,NARROW_INT,17.60159224501,78.12660891601,527.4330,-76.2000,WGS84,0.0089,0.0105,0.0202,"0",8.800,0.000,42,38,38,36,00,21,7f,37*6a6dd172
#BESTPOSA,FILE,0,2.0,FINESTEERING,2307,287069.850,02000800,cdba,17139;SOL_COMPUTED,NARROW_INT,17.60159273685,78.12660889937,527.4352,-76.2000,WGS84,0.0089,0.0106,0.0203,"0",8.850,0.000,42,38,38,36,00,21,7f,37*e019b395
#BESTPOSA,FILE,0,2.0,FINESTEERING,2307,287069.900,02000800,cdba,17139;SOL_COMPUTED,NARROW_INT,17.60159326006,78.12660889443,527.4344,-76.2000,WGS84,0.0089,0.0106,0.0203,"0",8.900,0.000,42,38,38,36,00,21,7f,37*829747ae
#BESTPOSA,FILE,0,2.0,FINESTEERING,2307,287069.950,02000800,cdba,17139;SOL_COMPUTED,NARROW_INT,17.60159380190,78.12660886574,527.4344,-76.2000,WGS84,0.0090,0.0106,0.0204,"0",8.950,0.000,42,38,38,36,00,21,7f,37*a363e00a
#BESTPOSA,FILE,0,2.0,FINESTEERING,2307,287070.000,02000800,cdba,17139;SOL_COMPUTED,NARROW_INT,17.60159435196,78.12660882393,527.4347,-76.2000,WGS84,0.0090,0.0106,0.0204,"0",9.000,0.000,42,38,38,36,00,21,7f,37*a7081585
#BESTPOSA,FILE,0,2.0,FINESTEERING,2307,287070.050,02000800,cdba,17139;SOL_COMPUTED,NARROW_INT,17.60159497274,78.12660879282,527.4364,-76.2000,WGS84,0.0091,0.0107,0.0206,"0",9.050,0.000,42,38,38,36,00,21,7f,37*7ac85e20
#BESTPOSA,FILE,0,2.0,FINESTEERING,2307,287070.100,02000800,cdba,17139;SOL_COMPUTED,NARROW_INT,17.60159559316,78.12660877117,527.4405,-76.2000,WGS84,0.0091,0.0107,0.0206,"0",9.100,0.000,42,38,38,36,00,21,7f,37*28b2ffb2
#BESTPOSA,FILE,0,2.0,FINESTEERING,2307,287070.200,02000800,cdba,17139;SOL_COMPUTED,NARROW_INT,17.60159694224,78.12660870039,527.4404,-76.2000,WGS84,0.0091,0.0108,0.0207,"0",9.200,0.000,42,38,38,36,00,21,7f,37*6a27f074
#BESTPOSA,FILE,0,2.0,FINESTEERING,2307,287070.300,02000800,cdba,17139;SOL_COMPUTED,NARROW_INT,17.60159835985,78.12660862787,527.4403,-76.2000,WGS84,0.0092,0.0109,0.0208,"0",9.300,0.000,42,38,38,36,00,21,7f,37*d82a99f5
#BESTPOSA,FILE,0,2.0,FINESTEERING,2307,287070.400,02000800,cdba,17139;SOL_COMPUTED,NARROW_INT,17.60159985089,78.12660852349,527.4440,-76.2000,WGS84,0.0092,0.0109,0.0209,"0",9.400,0.000,42,38,38,36,00,21,7f,37*9edae404
#BESTPOSA,FILE,0,2.0,FINESTEERING,2307,287070.450,02000800,cdba,17139;SOL_COMPUTED,NARROW_INT,17.60160064723,78.12660846295,527.4440,-76.2000,WGS84,0.0092,0.0109,0.0210,"0",9.450,0.000,42,38,38,36,00,21,7f,37*a6004a1d
#BESTPOSA,FILE,0,2.0,FINESTEERING,2307,287070.500,02000800,cdba,17139;SOL_COMPUTED,NARROW_INT,17.60160146662,78.12660843365,527.4458,-76.2000,WGS84,0.0092,0.0110,0.0210,"0",9.500,0.000,42,38,38,36,00,21,7f,37*ae5065c4
#BESTPOSA,FILE,0,2.0,FINESTEERING,2307,287070.550,02000800,cdba,17139;SOL_COMPUTED,NARROW_INT,17.60160230742,78.12660837385,527.4443,-76.2000,WGS84,0.0093,0.0110,0.0211,"0",9.550,0.000,42,38,38,36,00,21,7f,37*bd07d2f3
#BESTPOSA,FILE,0,2.0,FINESTEERING,2307,287070.600,02000800,cdba,17139;SOL_COMPUTED,NARROW_INT,17.60160316928,78.12660834920,527.4465,-76.2000,WGS84,0.0093,0.0110,0.0211,"0",9.600,0.000,43,38,38,36,00,21,7f,37*9c087e30
#BESTPOSA,FILE,0,2.0,FINESTEERING,2307,287070.650,02000800,cdba,17139;SOL_COMPUTED,NARROW_INT,17.60160405515,78.12660829819,527.4474,-76.2000,WGS84,0.0093,0.0110,0.0212,"0",9.650,0.000,42,38,38,36,00,21,7f,37*7c6afcef
#BESTPOSA,FILE,0,2.0,FINESTEERING,2307,287070.700,02000800,cdba,17139;SOL_COMPUTED,NARROW_INT,17.60160496068,78.12660827487,527.4487,-76.2000,WGS84,0.0093,0.0111,0.0212,"0",9.700,0.000,42,38,38,36,00,21,7f,37*d4b0c52a
#BESTPOSA,FILE,0,2.0,FINESTEERING,2307,287070.750,02000800,cdba,17139;SOL_COMPUTED,NARROW_INT,17.60160590467,78.12660823938,527.4490,-76.2000,WGS84,0.0093,0.0111,0.0212,"0",9.750,0.000,42,38,38,36,00,21,7f,37*700b5384
#BESTPOSA,FILE,0,2.0,FINESTEERING,2307,287070.800,02000800,cdba,17139;SOL_COMPUTED,NARROW_INT,17.60160685470,78.12660819807,527.4511,-76.2000,WGS84,0.0094,0.0111,0.0213,"0",9.800,0.000,43,38,38,36,00,21,7f,37*c17e6246
#BESTPOSA,FILE,0,2.0,FINESTEERING,2307,287070.850,02000800,cdba,17139;SOL_COMPUTED,NARROW_INT,17.60160783240,78.12660815064,527.4549,-76.2000,WGS84,0.0094,0.0111,0.0213,"0",9.850,0.000,42,38,38,36,00,21,7f,37*5403872c
#BESTPOSA,FILE,0,2.0,FINESTEERING,2307,287070.900,02000800,cdba,17139;SOL_COMPUTED,NARROW_INT,17.60160881769,78.12660810741,527.4562,-76.2000,WGS84,0.0094,0.0111,0.0214,"0",9.900,0.000,42,38,38,36,00,21,7f,37*e44d1b04
#BESTPOSA,FILE,0,2.0,FINESTEERING,2307,287070.950,02000800,cdba,17139;SOL_COMPUTED,NARROW_INT,17.60160982381,78.12660804584,527.4553,-76.2000,WGS84,0.0094,0.0112,0.0214,"0",9.950,0.000,42,38,38,36,00,21,7f,37*03ae6348
#BESTPOSA,FILE,0,2.0,FINESTEERING,2307,287071.000,02000800,cdba,17139;SOL_COMPUTED,NARROW_INT,17.60161084648,78.12660800067,527.4571,-76.2000,WGS84,0.0094,0.0112,0.0215,"0",10.000,0.000,42,38,38,36,00,21,7f,37*3b224cc8
#BESTPOSA,FILE,0,2.0,FINESTEERING,2307,287071.050,02000800,cdba,17139;SOL_COMPUTED,NARROW_INT,17.60161189180,78.12660794862,527.4582,-76.2000,WGS84,0.0095,0.0113,0.0217,"0",10.050,0.000,42,38,38,36,00,21,7f,37*2f7e30bb
#BESTPOSA,FILE,0,2.0,FINESTEERING,2307,287071.100,02000800,cdba,17139;SOL_COMPUTED,NARROW_INT,17.60161296106,78.12660789102,527.4615,-76.2000,WGS84,0.0095,0.0113,0.0217,"0",10.100,0.000,42,38,38,36,00,21,7f,37*3b3cca37
#BESTPOSA,FILE,0,1.5,FINESTEERING,2307,287071.200,02000800,cdba,17139;SOL_COMPUTED,NARROW_INT,17.60161513878,78.12660781226,527.4642,-76.2000,WGS84,0.0096,0.0114,0.0218,"0",10.200,0.000,42,38,38,36,00,21,7f,37*da96aa29
#BESTPOSA,FILE,0,1.5,FINESTEERING,2307,287071.300,02000800,cdba,17139;SOL_COMPUTED,NARROW_INT,17.60161737314,78.12660776170,527.4665,-76.2000,WGS84,0.0096,0.0114,0.0219,"0",10.300,0.000,42,38,38,36,00,21,7f,37*25460d09
#BESTPOSA,FILE,0,1.5,FINESTEERING,2307,287071.350,02000800,cdba,17139;SOL_COMPUTED,NARROW_INT,17.60161852427,78.12660773577,527.4677,-76.2000,WGS84,0.0097,0.0114,0.0220,"0",10.350,0.000,42,38,38,36,00,21,7f,37*b3cb531c
#BESTPOSA,FILE,0,1.5,FINESTEERING,2307,287071.400,02000800,cdba,17139;SOL_COMPUTED,NARROW_INT,17.60161969451,78.12660771879,527.4693,-76.2000,WGS84,0.0097,0.0115,0.0220,"0",10.400,0.000,42,38,38,36,00,21,7f,37*cc5e6b1f
#BESTPOSA,FILE,0,1.5,FINESTEERING,2307,287071.450,02000800,cdba,17139;SOL_COMPUTED,NARROW_INT,17.60162087954,78.12660768645,527.4700,-76.2000,WGS84,0.0097,0.0115,0.0221,"0",10.450,0.000,42,38,38,36,00,21,7f,37*4d8b4a09
#BESTPOSA,FILE,0,1.5,FINESTEERING,2307,287071.500,02000800,cdba,17139;SOL_COMPUTED,NARROW_INT,17.60162209180,78.12660763668,527.4720,-76.2000,WGS84,0.0097,0.0115,0.0221,"0",10.500,0.000,42,38,38,36,00,21,7f,37*a515a030
#BESTPOSA,FILE,0,1.5,FINESTEERING,2307,287071.550,02000800,cdba,17139;SOL_COMPUTED,NARROW_INT,17.60162331175,78.12660758046,527.4748,-76.2000,WGS84,0.0097,0.0115,0.0222,"0",10.550,0.000,42,38,38,36,00,21,7f,37*fb77505e
#BESTPOSA,FILE,0,1.5,FINESTEERING,2307,287071.600,02000800,cdba,17139;SOL_COMPUTED,NARROW_INT,17.60162456156,78.12660750793,527.4772,-76.2000,WGS84,0.0098,0.0116,0.0222,"0",10.600,0.000,42,38,38,36,00,21,7f,37*efe408aa
#BESTPOSA,FILE,0,1.5,FINESTEERING,2307,287071.650,02000800,cdba,17139;SOL_COMPUTED,NARROW_INT,17.60162580632,78.12660744978,527.4784,-76.2000,WGS84,0.0098,0.0116,0.0222,"0",10.650,0.000,42,38,38,36,00,21,7f,37*b017c094
#BESTPOSA,FILE,0,1.5,FINESTEERING,2307,287071.700,02000800,cdba,17139;SOL_COMPUTED,NARROW_INT,17.60162706478,78.12660738239,527.4844,-76.2000,WGS84,0.0098,0.0116,0.0223,"0",10.700,0.000,42,38,38,36,00,21,7f,37*96af4421
#BESTPOSA,FILE,0,1.5,FINESTEERING,2307,287071.750,02000800,cdba,17139;SOL_COMPUTED,NARROW_INT,17.60162835401,78.12660732995,527.4825,-76.2000,WGS84,0.0098,0.0116,0.0223,"0",10.750,0.000,42,38,38,36,00,21,7f,37*b0bd81c1
#BESTPOSA,FILE,0,1.5,FINESTEERING,2307,287071.800,02000800,cdba,17139;SOL_COMPUTED,NARROW_INT,17.60162964486,78.12660726257,527.4825,-76.2000,WGS84,0.0098,0.0117,0.0224,"0",10.800,0.000,43,38,38,36,00,21,7f,37*42403b0c
#BESTPOSA,FILE,0,1.5,FINESTEERING,2307,287071.850,02000800,cdba,17139;SOL_COMPUTED,NARROW_INT,17.60163093574,78.12660721880,527.4834,-76.2000,WGS84,0.0098,0.0117,0.0224,"0",10.850,0.000,43,38,38,36,00,21,7f,37*289dd5a3
#BESTPOSA,FILE,0,1.5,FINESTEERING,2307,287071.900,02000800,cdba,17139;SOL_COMPUTED,NARROW_INT,17.60163224856,78.12660716912,527.4857,-76.2000,WGS84,0.0099,0.0117,0.0225,"0",10.900,0.000,42,38,38,36,00,21,7f,37*0f14b2e1
#BESTPOSA,FILE,0,1.5,FINESTEERING,2307,287071.950,02000800,cdba,17139;SOL_COMPUTED,NARROW_INT,17.60163358669,78.12660714683,527.4879,-76.2000,WGS84,0.0099,0.0117,0.0225,"0",10.950,0.000,42,38,38,36,00,21,7f,37*4f6b8626
#BESTPOSA,FILE,0,1.5,FINESTEERING,2307,287072.000,02000800,cdba,17139;SOL_COMPUTED,NARROW_INT,17.60163493976,78.12660711426,527.4897,-76.2000,WGS84,0.0099,0.0117,0.0226,"0",11.000,0.000,42,38,38,36,00,21,7f,37*d3536f80
#BESTPOSA,FILE,0,1.5,FINESTEERING,2307,287072.050,02000800,cdba,17139;SOL_COMPUTED,NARROW_INT,17.60163631449,78.12660707390,527.4908,-76.2000,WGS84,0.0100,0.0118,0.0227,"0",11.050,0.000,42,38,38,36,00,21,7f,37*b9e534c7
#BESTPOSA,FILE,0,1.5,FINESTEERING,2307,287072.100,02000800,cdba,17139;SOL_COMPUTED,NARROW_INT,17.60163769587,78.12660702764,527.4918,-76.2000,WGS84,0.0100,0.0119,0.0228,"0",11.100,0.000,42,38,38,36,00,21,7f,37*5b27fad8
#BESTPOSA,FILE,0,1.5,FINESTEERING,2307,287072.200,02000800,cdba,17139;SOL_COMPUTED,NARROW_INT,17.60164051884,78.12660694313,527.4981,-76.2000,WGS84,0.0100,0.0119,0.0229,"0",11.200,0.000,42,38,38,36,00,21,7f,37*482940a2
#BESTPOSA,FILE,0,2.0,FINESTEERING,2307,287072.250,02000800,cdba,17139;SOL_COMPUTED,NARROW_INT,17.60164195316,78.12660689149,527.4980,-76.2000,WGS84,0.0101,0.0119,0.0229,"0",11.250,0.000,42,38,38,36,00,21,7f,37*b021ee9a
#BESTPOSA,FILE,0,2.0,FINESTEERING,2307,287072.300,02000800,cdba,17139;SOL_COMPUTED,NARROW_INT,17.60164339702,78.12660686233,527.5009,-76.2000,WGS84,0.0101,0.0120,0.0230,"0",11.300,0.000,42,38,38,36,00,21,7f,37*815ddbd9
#BESTPOSA,FILE,0,2.0,FINESTEERING,2307,287072.350,02000800,cdba,17139;SOL_COMPUTED,NARROW_INT,17.60164486641,78.12660681089,527.5015,-76.2000,WGS84,0.0101,0.0120,0.0230,"0",11.350,0.000,42,38,38,36,00,21,7f,37*159abe12
#BESTPOSA,FILE,0,2.0,FINESTEERING,2307,287072.400,02000800,cdba,17139;SOL_COMPUTED,NARROW_INT,17.60164634453,78.12660676493,527.5025,-76.2000,WGS84,0.0101,0.0120,0.0231,"0",11.400,0.000,42,38,38,36,00,21,7f,37*4f75b87f
#BESTPOSA,FILE,0,2.0,FINESTEERING,2307,287072.450,02000800,cdba,17139;SOL_COMPUTED,NARROW_INT,17.60164784737,78.12660671809,527.5069,-76.2000,WGS84,0.0101,0.0120,0.0231,"0",11.450,0.000,42,37,37,35,00,21,7f,37*691c2d1e
#BESTPOSA,FILE,0,2.0,FINESTEERING,2307,287072.500,02000800,cdba,17139;SOL_COMPUTED,NARROW_INT,17.60164936833,78.12660669607,527.5067,-76.2000,WGS84,0.0102,0.0121,0.0232,"0",11.500,0.000,41,37,37,35,00,21,7f,37*3c876367
#BESTPOSA,FILE,0,2.0,FINESTEERING,2307,287072.550,02000800,cdba,17139;SOL_COMPUTED,NARROW_INT,17.60165089517,78.12660664429,527.5079,-76.2000,WGS84,0.0102,0.0121,0.0232,"0",11.550,0.000,41,37,37,35,00,21,7f,37*b975f994
#BESTPOSA,FILE,0,2.0,FINESTEERING,2307,287072.600,02000800,cdba,17139;SOL_COMPUTED,NARROW_INT,17.60165244521,78.12660662340,527.5064,-76.2000,WGS84,0.0102,0.0121,0.0233,"0",11.600,0.000,41,37,37,35,00,21,7f,37*466af8f4
#BESTPOSA,FILE,0,2.0,FINESTEERING,2307,287072.650,02000800,cdba,17139;SOL_COMPUTED,NARROW_INT,17.60165400712,78.12660656646,527.5091,-76.2000,WGS84,0.0102,0.0121,0.0233,"0",11.650,0.000,42,37,37,35,00,21,7f,37*f2dcb7b1
#BESTPOSA,FILE,0,2.0,FINESTEERING,2307,287072.700,02000800,cdba,17139;SOL_COMPUTED,NARROW_INT,17.60165559271,78.12660651807,527.5119,-76.2000,WGS84,0.0102,0.0122,0.0234,"0",11.700,0.000,41,37,37,35,00,21,7f,37*12e1bb5d
#BESTPOSA,FILE,0,2.0,FINESTEERING,2307,287072.750,02000800,cdba,17139;SOL_COMPUTED,NARROW_INT,17.60165720975,78.12660646660,527.5136,-76.2000,WGS84,0.0103,0.0122,0.0234,"0",11.750,0.000,41,37,37,35,00,21,7f,37*72995924
#BESTPOSA,FILE,0,2.0,FINESTEERING,2307,287072.800,02000800,cdba,17139;SOL_COMPUTED,NARROW_INT,17.60165884382,78.12660641570,527.5145,-76.2000,WGS84,0.0103,0.0122,0.0235,"0",11.800,0.000,42,37,37,35,00,21,7f,37*70e2dc2a
#BESTPOSA,FILE,0,2.0,FINESTEERING,2307,287072.850,02000800,cdba,17139;SOL_COMPUTED,NARROW_INT,17.60166047361,78.12660637613,527.5149,-76.2000,WGS84,0.0103,0.0122,0.0235,"0",11.850,0.000,41,36,36,35,00,21,7f,37*1f016e46
#BESTPOSA,FILE,0,2.0,FINESTEERING,2307,287072.950,02000800,cdba,17139;SOL_COMPUTED,NARROW_INT,17.60166380297,78.12660629281,527.5171,-76.2000,WGS84,0.0103,0.0123,0.0236,"0",11.950,0.000,40,36,36,35,00,21,7f,37*15c5ea58
#BESTPOSA,FILE,0,2.0,FINESTEERING,2307,287073.000,02000800,cdba,17139;SOL_COMPUTED,NARROW_INT,17.60166547605,78.12660625538,527.5184,-76.2000,WGS84,0.0103,0.0123,0.0236,"0",12.000,0.000,40,36,36,35,00,21,7f,37*d25950a3
#BESTPOSA,FILE,0,2.0,FINESTEERING,2307,287073.150,02000800,cdba,17139;SOL_COMPUTED,NARROW_INT,17.60167062569,78.12660615505,527.5239,-76.2000,WGS84,0.0105,0.0124,0.0239,"0",12.150,0.000,40,36,36,35,00,21,7f,37*ec6b97f1
#BESTPOSA,FILE,0,2.0,FINESTEERING,2307,287073.200,02000800,cdba,17139;SOL_COMPUTED,NARROW_INT,17.60167238069,78.12660610901,527.5263,-76.2000,WGS84,0.0105,0.0125,0.0240,"0",12.200,0.000,40,36,36,35,00,21,7f,37*14ffac80
#BESTPOSA,FILE,0,2.0,FINESTEERING,2307,287073.250,02000800,cdba,17139;SOL_COMPUTED,NARROW_INT,17.60167414146,78.12660607951,527.5272,-76.2000,WGS84,0.0105,0.0125,0.0240,"0",12.250,0.000,40,36,36,35,00,21,7f,37*2cd791cf
#BESTPOSA,FILE,0,2.0,FINESTEERING,2307,287073.300,02000800,cdba,17139;SOL_COMPUTED,NARROW_INT,17.60167591282,78.12660604677,527.5306,-76.2000,WGS84,0.0105,0.0125,0.0241,"0",12.300,0.000,40,36,36,35,00,21,7f,37*88c51dcb
#BESTPOSA,FILE,0,2.0,FINESTEERING,2307,287073.350,02000800,cdba,17139;SOL_COMPUTED,NARROW_INT,17.60167770978,78.12660599578,527.5336,-76.2000,WGS84,0.0105,0.0125,0.0241,"0",12.350,0.000,40,36,36,35,00,21,7f,37*786dfe6c
#BESTPOSA,FILE,0,2.0,FINESTEERING,2307,287073.400,02000800,cdba,17139;SOL_COMPUTED,NARROW_INT,17.60167951410,78.12660595417,527.5326,-76.2000,WGS84,0.0106,0.0126,0.0242,"0",12.400,0.000,40,36,36,35,00,21,7f,37*6bd0de50
#BESTPOSA,FILE,0,2.0,FINESTEERING,2307,287073.450,02000800,cdba,17139;SOL_COMPUTED,NARROW_INT,17.60168133658,78.12660590226,527.5350,-76.2000,WGS84,0.0106,0.0126,0.0242,"0",12.450,0.000,40,36,36,35,00,21,7f,37*bcbfb1b6
#BESTPOSA,FILE,0,2.0,FINESTEERING,2307,287073.500,02000800,cdba,17139;SOL_COMPUTED,NARROW_INT,17.60168316054,78.12660586336,527.5353,-76.2000,WGS84,0.0106,0.0126,0.0242,"0",12.500,0.000,40,36,36,35,00,21,7f,37*4bcb4356
#BESTPOSA,FILE,0,2.0,FINESTEERING,2307,287073.550,02000800,cdba,17139;SOL_COMPUTED,NARROW_INT,17.60168499725,78.12660583544,527.5382,-76.2000,WGS84,0.0106,0.0126,0.0243,"0",12.550,0.000,40,36,36,35,00,21,7f,37*fee295ac
#BESTPOSA,FILE,0,2.0,FINESTEERING,2307,287073.600,02000800,cdba,17139;SOL_COMPUTED,NARROW_INT,17.60168685145,78.12660580197,527.5374,-76.2000,WGS84,0.0106,0.0126,0.0243,"0",12.600,0.000,40,36,36,35,00,21,7f,37*998d6eb3
#BESTPOSA,FILE,0,2.0,FINESTEERING,2307,287073.650,02000800,cdba,17139;SOL_COMPUTED,NARROW_INT,17.60168872173,78.12660576468,527.5392,-76.2000,WGS84,0.0106,0.0127,0.0244,"0",12.650,0.000,41,36,36,35,00,21,7f,37*e68df3f2
#BESTPOSA,FILE,0,2.0,FINESTEERING,2307,287073.700,02000800,cdba,17139;SOL_COMPUTED,NARROW_INT,17.60169061452,78.12660573800,527.5386,-76.2000,WGS84,0.0107,0.0127,0.0244,"0",12.700,0.000,41,36,36,35,00,21,7f,37*d004b5f3
#BESTPOSA,FILE,0,2.0,FINESTEERING,2307,287073.750,02000800,cdba,17139;SOL_COMPUTED,NARROW_INT,17.60169251361,78.12660569705,527.5397,-76.2000,WGS84,0.0107,0.0127,0.0244,"0",12.750,0.000,41,36,36,35,00,21,7f,37*8e381821
#BESTPOSA,FILE,0,2.0,FINESTEERING,2307,287073.800,02000800,cdba,17139;SOL_COMPUTED,NARROW_INT,17.60169442184,78.12660566559,527.5409,-76.2000,WGS84,0.0107,0.0127,0.0245,"0",12.800,0.000,43,36,36,35,00,21,7f,37*950bcad0
#BESTPOSA,FILE,0,2.0,FINESTEERING,2307,287073.850,02000800,cdba,17139;SOL_COMPUTED,NARROW_INT,17.60169635209,78.12660563711,527.5450,-76.2000,WGS84,0.0107,0.0128,0.0245,"0",12.850,0.000,43,36,36,35,00,21,7f,37*e6d21a0f
#BESTPOSA,FILE,0,2.0,FINESTEERING,2307,287073.900,02000800,cdba,17139;SOL_COMPUTED,NARROW_INT,17.60169829207,78.12660560139,527.5474,-76.2000,WGS84,0.0107,0.0128,0.0246,"0",12.900,0.000,43,36,36,35,00,21,7f,37*450f80be
#BESTPOSA,FILE,0,2.0,FINESTEERING,2307,287073.950,02000800,cdba,17139;SOL_COMPUTED,NARROW_INT,17.60170024971,78.12660557777,527.5480,-76.2000,WGS84,0.0108,0.0128,0.0246,"0",12.950,0.000,43,36,36,35,00,21,7f,37*6b8ab612
#BESTPOSA,FILE,0,2.0,FINESTEERING,2307,287074.000,02000800,cdba,17139;SOL_COMPUTED,NARROW_INT,17.60170221773,78.12660555878,527.5496,-76.2000,WGS84,0.0108,0.0128,0.0247,"0",13.000,0.000,43,36,36,35,00,21,7f,37*aa98bc3d
#BESTPOSA,FILE,0,2.0,FINESTEERING,2307,287074.050,02000800,cdba,17139;SOL_COMPUTED,NARROW_INT,17.60170420622,78.12660553177,527.5527,-76.2000,WGS84,0.0108,0.0129,0.0248,"0",13.050,0.000,43,39,39,35,00,21,7f,37*17c62cbe
#BESTPOSA,FILE,0,2.0,FINESTEERING,2307,287074.100,02000800,cdba,17139;SOL_COMPUTED,NARROW_INT,17.60170621752,78.12660550431,527.5521,-76.2000,WGS84,0.0109,0.0129,0.0249,"0",13.100,0.000,43,39,39,35,00,21,7f,37*0bf30f4a
#BESTPOSA,FILE,0,2.0,FINESTEERING,2307,287074.150,02000800,cdba,17139;SOL_COMPUTED,NARROW_INT,17.60170824760,78.12660547393,527.5583,-76.2000,WGS84,0.0109,0.0130,0.0249,"0",13.150,0.000,43,39,39,35,00,21,7f,37*f06a122c
#BESTPOSA,FILE,0,2.0,FINESTEERING,2307,287074.200,02000800,cdba,17139;SOL_COMPUTED,NARROW_INT,17.60171027617,78.12660545608,527.5590,-76.2000,WGS84,0.0109,0.0130,0.0250,"0",13.200,0.000,43,39,39,36,00,21,7f,37*8cfa99d9
#BESTPOSA,FILE,0,2.0,FINESTEERING,2307,287074.250,02000800,cdba,17139;SOL_COMPUTED,NARROW_INT,17.60171233059,78.12660541008,527.5605,-76.2000,WGS84,0.0109,0.0130,0.0250,"0",13.250,0.000,43,39,39,36,00,21,7f,37*3e3974a2
#BESTPOSA,FILE,0,2.0,FINESTEERING,2307,287074.300,02000800,cdba,17139;SOL_COMPUTED,NARROW_INT,17.60171439609,78.12660537295,527.5620,-76.2000,WGS84,0.0109,0.0130,0.0251,"0",13.300,0.000,43,39,39,36,00,21,7f,37*2b3146e2
#BESTPOSA,FILE,0,2.0,FINESTEERING,2307,287074.350,02000800,cdba,17139;SOL_COMPUTED,NARROW_INT,17.60171649061,78.12660533081,527.5633,-76.2000,WGS84,0.0110,0.0130,0.0251,"0",13.350,0.000,43,39,39,36,00,21,7f,37*e5ff601f
#BESTPOSA,FILE,0,2.0,FINESTEERING,2307,287074.400,02000800,cdba,17139;SOL_COMPUTED,NARROW_INT,17.60171858752,78.12660530896,527.5679,-76.2000,WGS84,0.0110,0.0131,0.0252,"0",13.400,0.000,43,39,39,36,00,21,7f,37*2ad2e0b2
#BESTPOSA,FILE,0,2.0,FINESTEERING,2307,287074.450,02000800,cdba,17139;SOL_COMPUTED,NARROW_INT,17.60172070263,78.12660529063,527.5710,-76.2000,WGS84,0.0110,0.0131,0.0252,"0",13.450,0.000,43,39,39,36,00,21,7f,37*aa06cdbe
#BESTPOSA,FILE,0,2.0,FINESTEERING,2307,287074.500,02000800,cdba,17139;SOL_COMPUTED,NARROW_INT,17.60172282563,78.12660525083,527.5737,-76.2000,WGS84,0.0110,0.0131,0.0252,"0",13.500,0.000,43,39,39,36,00,21,7f,37*cac73f7b
#BESTPOSA,FILE,0,2.0,FINESTEERING,2307,287074.550,02000800,cdba,17139;SOL_COMPUTED,NARROW_INT,17.60172497292,78.12660521238,527.5766,-76.2000,WGS84,0.0110,0.0131,0.0253,"0",13.550,0.000,43,39,39,36,00,21,7f,37*168fd1f8
#BESTPOSA,FILE,0,2.0,FINESTEERING,2307,287074.600,02000800,cdba,17139;SOL_COMPUTED,NARROW_INT,17.60172713745,78.12660517564,527.5814,-76.2000,WGS84,0.0110,0.0132,0.0253,"0",13.600,0.000,43,39,39,36,00,21,7f,37*e35c3188
#BESTPOSA,FILE,0,2.0,FINESTEERING,2307,287074.650,02000800,cdba,17139;SOL_COMPUTED,NARROW_INT,17.60172931879,78.12660516066,527.5815,-76.2000,WGS84,0.0111,0.0132,0.0254,"0",13.650,0.000,43,39,39,36,00,21,7f,37*358d1796
#BESTPOSA,FILE,0,2.0,FINESTEERING,2307,287074.700,02000800,cdba,17139;SOL_COMPUTED,NARROW_INT,17.60173152460,78.12660510487,527.5836,-76.2000,WGS84,0.0111,0.0132,0.0254,"0",13.700,0.000,43,39,39,36,00,21,7f,37*68ab5eea
#BESTPOSA,FILE,0,2.0,FINESTEERING,2307,287074.750,02000800,cdba,17139;SOL_COMPUTED,NARROW_INT,17.60173374351,78.12660506342,527.5894,-76.2000,WGS84,0.0111,0.0132,0.0255,"0",13.750,0.000,43,39,39,36,00,21,7f,37*47835e87
#BESTPOSA,FILE,0,2.0,FINESTEERING,2307,287074.800,02000800,cdba,17139;SOL_COMPUTED,NARROW_INT,17.60173597354,78.12660504176,527.5914,-76.2000,WGS84,0.0111,0.0132,0.0256,"0",13.800,0.000,43,39,39,36,00,21,7f,37*365cb736
#BESTPOSA,FILE,0,2.0,FINESTEERING,2307,287074.850,02000800,cdba,17139;SOL_COMPUTED,NARROW_INT,17.60173821279,78.12660501447,527.5957,-76.2000,WGS84,0.0111,0.0133,0.0256,"0",13.850,0.000,43,39,39,36,00,21,7f,37*2dc8f36f
#BESTPOSA,FILE,0,2.0,FINESTEERING,2307,287074.900,02000800,cdba,17139;SOL_COMPUTED,NARROW_INT,17.60174047253,78.12660497315,527.5967,-76.2000,WGS84,0.0111,0.0133,0.0256,"0",13.900,0.000,43,39,39,36,00,21,7f,37*8cf7efe0
#BESTPOSA,FILE,0,2.0,FINESTEERING,2307,287074.950,02000800,cdba,17139;SOL_COMPUTED,NARROW_INT,17.60174274764,78.12660493537,527.5956,-76.2000,WGS84,0.0112,0.0133,0.0257,"0",13.950,0.000,43,39,39,36,00,21,7f,37*ecd93c75
#BESTPOSA,FILE,0,2.0,FINESTEERING,2307,287075.000,02000800,cdba,17139;SOL_COMPUTED,NARROW_INT,17.60174503474,78.12660489327,527.6012,-76.2000,WGS84,0.0112,0.0133,0.0257,"0",14.000,0.000,43,39,39,36,00,21,7f,37*f521a751
#BESTPOSA,FILE,0,2.0,FINESTEERING,2307,287075.050,02000800,cdba,17139;SOL_COMPUTED,NARROW_INT,17.60174734730,78.12660486881,527.6046,-76.2000,WGS84,0.0112,0.0134,0.0259,"0",14.050,0.000,43,39,39,36,00,21,7f,37*48b1aa7d
#BESTPOSA,FILE,0,2.0,FINESTEERING,2307,287075.100,02000800,cdba,17139;SOL_COMPUTED,NARROW_INT,17.60174966332,78.12660482613,527.6091,-76.2000,WGS84,0.0113,0.0134,0.0260,"0",14.100,0.000,43,39,39,36,00,21,7f,37*3c15539c
#BESTPOSA,FILE,0,2.0,FINESTEERING,2307,287075.150,02000800,cdba,17139;SOL_COMPUTED,NARROW_INT,17.60175199200,78.12660479108,527.6090,-76.2000,WGS84,0.0113,0.0135,0.0260,"0",14.150,0.000,43,39,39,36,00,21,7f,37*7f14fb31
#BESTPOSA,FILE,0,2.0,FINESTEERING,2307,287075.200,02000800,cdba,17139;SOL_COMPUTED,NARROW_INT,17.60175432416,78.12660476518,527.6125,-76.2000,WGS84,0.0113,0.0135,0.0261,"0",14.200,0.000,43,39,39,36,00,21,7f,37*5c6ad9e6
#BESTPOSA,FILE,0,2.0,FINESTEERING,2307,287075.300,02000800,cdba,17139;SOL_COMPUTED,NARROW_INT,17.60175906109,78.12660474103,527.6175,-76.2000,WGS84,0.0113,0.0135,0.0261,"0",14.300,0.000,43,39,39,36,00,21,7f,37*dd12d211
#BESTPOSA,FILE,0,2.0,FINESTEERING,2307,287075.350,02000800,cdba,17139;SOL_COMPUTED,NARROW_INT,17.60176143590,78.12660471447,527.6166,-76.2000,WGS84,0.0114,0.0136,0.0262,"0",14.350,0.000,43,39,39,36,00,21,7f,37*1fbaf34d
#BESTPOSA,FILE,0,2.0,FINESTEERING,2307,287075.400,02000800,cdba,17139;SOL_COMPUTED,NARROW_INT,17.60176383920,78.12660468399,527.6174,-76.2000,WGS84,0.0114,0.0136,0.0262,"0",14.400,0.000,43,39,39,36,00,21,7f,37*39cb7fa1
#BESTPOSA,FILE,0,2.0,FINESTEERING,2307,287075.450,02000800,cdba,17139;SOL_COMPUTED,NARROW_INT,17.60176626150,78.12660464437,527.6215,-76.2000,WGS84,0.0114,0.0136,0.0263,"0",14.450,0.000,43,39,39,36,00,21,7f,37*bdb1963e
#BESTPOSA,FILE,0,2.0,FINESTEERING,2307,287075.500,02000800,cdba,17139;SOL_COMPUTED,NARROW_INT,17.60176867464,78.12660463766,527.6210,-76.2000,WGS84,0.0114,0.0136,0.0264,"0",14.500,0.000,43,39,39,36,00,21,7f,37*286a7d25
#BESTPOSA,FILE,0,2.0,FINESTEERING,2307,287075.550,02000800,cdba,17139;SOL_COMPUTED,NARROW_INT,17.60177111945,78.12660462798,527.6241,-76.2000,WGS84,0.0114,0.0136,0.0264,"0",14.550,0.000,43,38,38,35,00,21,7f,37*b08a5eb0
#BESTPOSA,FILE,0,2.0,FINESTEERING,2307,287075.600,02000800,cdba,17139;SOL_COMPUTED,NARROW_INT,17.60177356998,78.12660461359,527.6263,-76.2000,WGS84,0.0114,0.0137,0.0265,"0",14.600,0.000,42,38,38,35,00,21,7f,37*a5f52024
#BESTPOSA,FILE,0,2.0,FINESTEERING,2307,287075.650,02000800,cdba,17139;SOL_COMPUTED,NARROW_INT,17.60177603302,78.12660459140,527.6308,-76.2000,WGS84,0.0115,0.0137,0.0265,"0",14.650,0.000,43,38,38,35,00,21,7f,37*9767f063
#BESTPOSA,FILE,0,2.0,FINESTEERING,2307,287075.700,02000800,cdba,17139;SOL_COMPUTED,NARROW_INT,17.60177849457,78.12660459309,527.6347,-76.2000,WGS84,0.0115,0.0137,0.0265,"0",14.700,0.000,43,38,38,35,00,21,7f,37*79a56914
#BESTPOSA,FILE,0,2.0,FINESTEERING,2307,287075.750,02000800,cdba,17139;SOL_COMPUTED,NARROW_INT,17.60178096277,78.12660462467,527.6401,-76.2000,WGS84,0.0115,0.0137,0.0266,"0",14.750,0.000,43,38,38,35,00,21,7f,37*bcf28f82
#BESTPOSA,FILE,0,2.0,FINESTEERING,2307,287075.800,02000800,cdba,17139;SOL_COMPUTED,NARROW_INT,17.60178342987,78.12660464165,527.6449,-76.2000,WGS84,0.0115,0.0138,0.0266,"0",14.800,0.000,43,38,38,35,00,21,7f,37*07432eb2
#BESTPOSA,FILE,0,2.0,FINESTEERING,2307,287075.850,02000800,cdba,17139;SOL_COMPUTED,NARROW_INT,17.60178591098,78.12660465169,527.6487,-76.2000,WGS84,0.0115,0.0138,0.0267,"0",14.850,0.000,43,38,38,35,00,21,7f,37*7fddad7d
#BESTPOSA,FILE,0,2.0,FINESTEERING,2307,287075.950,02000800,cdba,17139;SOL_COMPUTED,NARROW_INT,17.60179089572,78.12660468741,527.6471,-76.2000,WGS84,0.0116,0.0138,0.0268,"0",14.950,0.000,44,38,38,35,00,21,7f,37*85913ac1
#BESTPOSA,FILE,0,2.0,FINESTEERING,2307,287076.000,02000800,cdba,17139;SOL_COMPUTED,NARROW_INT,17.60179340154,78.12660468872,527.6495,-76.2000,WGS84,0.0116,0.0138,0.0268,"0",15.000,0.000,44,38,38,35,00,21,7f,37*f30691b3
#BESTPOSA,FILE,0,2.0,FINESTEERING,2307,287076.050,02000800,cdba,17139;SOL_COMPUTED,NARROW_INT,17.60179591313,78.12660467802,527.6548,-76.2000,WGS84,0.0116,0.0139,0.0270,"0",15.050,0.000,44,39,39,37,00,21,7f,37*69ed413e
#BESTPOSA,FILE,0,2.0,FINESTEERING,2307,287076.200,02000800,cdba,17139;SOL_COMPUTED,NARROW_INT,17.60180349684,78.12660472172,527.6665,-76.2000,WGS84,0.0117,0.0140,0.0271,"0",15.200,0.000,44,39,39,37,00,21,7f,37*91c113e5
#BESTPOSA,FILE,0,2.0,FINESTEERING,2307,287076.300,02000800,cdba,17139;SOL_COMPUTED,NARROW_INT,17.60180855764,78.12660467478,527.6749,-76.2000,WGS84,0.0117,0.0140,0.0272,"0",15.300,0.000,44,39,39,37,00,21,7f,37*e45ef1c4
#BESTPOSA,FILE,0,2.0,FINESTEERING,2307,287076.350,02000800,cdba,17139;SOL_COMPUTED,NARROW_INT,17.60181109140,78.12660467244,527.6780,-76.2000,WGS84,0.0117,0.0141,0.0273,"0",15.350,0.000,44,39,39,37,00,21,7f,37*6cddc889
#BESTPOSA,FILE,0,2.0,FINESTEERING,2307,287076.450,02000800,cdba,17139;SOL_COMPUTED,NARROW_INT,17.60181616104,78.12660465514,527.6812,-76.2000,WGS84,0.0118,0.0141,0.0274,"0",15.450,0.000,44,39,39,37,00,21,7f,37*1c36b56a
#BESTPOSA,FILE,0,2.0,FINESTEERING,2307,287076.500,02000800,cdba,17139;SOL_COMPUTED,NARROW_INT,17.60181870966,78.12660466224,527.6830,-76.2000,WGS84,0.0118,0.0141,0.0274,"0",15.500,0.000,44,39,39,37,00,21,7f,37*40afd3e3
#BESTPOSA,FILE,0,2.0,FINESTEERING,2307,287076.550,02000800,cdba,17139;SOL_COMPUTED,NARROW_INT,17.60182126645,78.12660466472,527.6818,-76.2000,WGS84,0.0118,0.0141,0.0275,"0",15.550,0.000,44,39,39,37,00,21,7f,37*82f5c85e
#BESTPOSA,FILE,0,2.0,FINESTEERING,2307,287076.650,02000800,cdba,17139;SOL_COMPUTED,NARROW_INT,17.60182639977,78.12660470939,527.6869,-76.2000,WGS84,0.0118,0.0142,0.0276,"0",15.650,0.000,44,39,39,37,00,21,7f,37*942da41b
#BESTPOSA,FILE,0,2.0,FINESTEERING,2307,287076.700,02000800,cdba,17139;SOL_COMPUTED,NARROW_INT,17.60182897294,78.12660473810,527.6899,-76.2000,WGS84,0.0119,0.0142,0.0276,"0",15.700,0.000,45,39,39,37,00,21,7f,37*f56c63a2
#BESTPOSA,FILE,0,2.0,FINESTEERING,2307,287076.750,02000800,cdba,17139;SOL_COMPUTED,NARROW_INT,17.60183156514,78.12660475970,527.6952,-76.2000,WGS84,0.0119,0.0142,0.0276,"0",15.750,0.000,45,39,39,37,00,21,7f,37*36352e03
#BESTPOSA,FILE,0,2.0,FINESTEERING,2307,287076.800,02000800,cdba,17139;SOL_COMPUTED,NARROW_INT,17.60183414015,78.12660480439,527.6951,-76.2000,WGS84,0.0119,0.0142,0.0276,"0",15.800,0.000,45,39,39,37,00,21,7f,37*8ad4daeb
#BESTPOSA,FILE,0,2.0,FINESTEERING,2307,287076.850,02000800,cdba,17139;SOL_COMPUTED,NARROW_INT,17.60183670633,78.12660486428,527.6985,-76.2000,WGS84,0.0119,0.0143,0.0276,"0",15.850,0.000,45,39,39,37,00,21,7f,37*f31b1b26
#BESTPOSA,FILE,0,2.0,FINESTEERING,2307,287076.900,02000800,cdba,17139;SOL_COMPUTED,NARROW_INT,17.60183926931,78.12660491302,527.7013,-76.2000,WGS84,0.0119,0.0143,0.0277,"0",15.900,0.000,45,39,39,37,00,21,7f,37*b02e13e0
#BESTPOSA,FILE,0,2.0,FINESTEERING,2307,287076.950,02000800,cdba,17139;SOL_COMPUTED,NARROW_INT,17.60184183293,78.12660494132,527.7021,-76.2000,WGS84,0.0119,0.0143,0.0277,"0",15.950,0.000,45,39,39,37,00,21,7f,37*f3ade849
#BESTPOSA,FILE,0,2.0,FINESTEERING,2307,287077.000,02000800,cdba,17139;SOL_COMPUTED,NARROW_INT,17.60184440668,78.12660494771,527.7042,-76.2000,WGS84,0.0119,0.0143,0.0278,"0",16.000,0.000,45,39,39,37,00,21,7f,37*abb1c04b
#BESTPOSA,FILE,0,1.5,FINESTEERING,2307,287077.300,02000800,cdba,17139;SOL_COMPUTED,NARROW_INT,17.60186006117,78.12660510054,527.7081,-76.2000,WGS84,0.0121,0.0145,0.0281,"0",16.300,0.000,45,41,41,38,00,21,7f,37*52043a13
#BESTPOSA,FILE,0,1.5,FINESTEERING,2307,287077.350,02000800,cdba,17139;SOL_COMPUTED,NARROW_INT,17.60186269296,78.12660515201,527.7122,-76.2000,WGS84,0.0121,0.0146,0.0282,"0",16.350,0.000,45,41,41,38,00,21,7f,37*3380c322
#BESTPOSA,FILE,0,1.5,FINESTEERING,2307,287077.400,02000800,cdba,17139;SOL_COMPUTED,NARROW_INT,17.60186532752,78.12660519108,527.7174,-76.2000,WGS84,0.0121,0.0146,0.0282,"0",16.400,0.000,45,41,41,38,00,21,7f,37*dc051238
#BESTPOSA,FILE,0,1.5,FINESTEERING,2307,287077.450,02000800,cdba,17139;SOL_COMPUTED,NARROW_INT,17.60186795238,78.12660521154,527.7197,-76.2000,WGS84,0.0121,0.0146,0.0283,"0",16.450,0.000,46,41,41,38,00,21,7f,37*03404f7e
#BESTPOSA,FILE,0,1.5,FINESTEERING,2307,287077.500,02000800,cdba,17139;SOL_COMPUTED,NARROW_INT,17.60187056107,78.12660522107,527.7208,-76.2000,WGS84,0.0121,0.0146,0.0283,"0",16.500,0.000,46,41,41,38,00,21,7f,37*b84f8b57
#BESTPOSA,FILE,0,1.5,FINESTEERING,2307,287077.550,02000800,cdba,17139;SOL_COMPUTED,NARROW_INT,17.60187317639,78.12660520604,527.7146,-76.2000,WGS84,0.0122,0.0146,0.0283,"0",16.550,0.000,46,41,41,38,00,21,7f,37*99bc48bb
#BESTPOSA,FILE,0,1.5,FINESTEERING,2307,287077.600,02000800,cdba,17139;SOL_COMPUTED,NARROW_INT,17.60187580032,78.12660519319,527.7132,-76.2000,WGS84,0.0122,0.0146,0.0284,"0",16.600,0.000,46,41,41,38,00,21,7f,37*462808c8
#BESTPOSA,FILE,0,1.5,FINESTEERING,2307,287077.650,02000800,cdba,17139;SOL_COMPUTED,NARROW_INT,17.60187842936,78.12660519871,527.7122,-76.2000,WGS84,0.0122,0.0147,0.0284,"0",16.650,0.000,46,41,41,38,00,21,7f,37*d25cb8f0
#BESTPOSA,FILE,0,1.5,FINESTEERING,2307,287077.700,02000800,cdba,17139;SOL_COMPUTED,NARROW_INT,17.60188106065,78.12660518334,527.7100,-76.2000,WGS84,0.0122,0.0147,0.0285,"0",16.700,0.000,46,41,41,38,00,21,7f,37*72442183
#BESTPOSA,FILE,0,1.5,FINESTEERING,2307,287077.750,02000800,cdba,17139;SOL_COMPUTED,NARROW_INT,17.60188370353,78.12660518608,527.7096,-76.2000,WGS84,0.0122,0.0147,0.0285,"0",16.750,0.000,46,41,41,38,00,21,7f,37*d3f1762a
#BESTPOSA,FILE,0,1.5,FINESTEERING,2307,287077.850,02000800,cdba,17139;SOL_COMPUTED,NARROW_INT,17.60188902654,78.12660523024,527.7142,-76.2000,WGS84,0.0122,0.0147,0.0286,"0",16.850,0.000,46,41,41,38,00,21,7f,37*cc4e422c
#BESTPOSA,FILE,0,1.5,FINESTEERING,2307,287077.900,02000800,cdba,17139;SOL_COMPUTED,NARROW_INT,17.60189168601,78.12660524918,527.7163,-76.2000,WGS84,0.0123,0.0148,0.0286,"0",16.900,0.000,46,41,41,38,00,21,7f,37*bc38d9ca
#BESTPOSA,FILE,0,1.5,FINESTEERING,2307,287077.950,02000800,cdba,17139;SOL_COMPUTED,NARROW_INT,17.60189435099,78.12660527866,527.7196,-76.2000,WGS84,0.0123,0.0148,0.0286,"0",16.950,0.000,46,41,41,38,00,21,7f,37*c311d85c
#BESTPOSA,FILE,0,1.5,FINESTEERING,2307,287078.000,02000800,cdba,17139;SOL_COMPUTED,NARROW_INT,17.60189701596,78.12660530104,527.7207,-76.2000,WGS84,0.0123,0.0148,0.0287,"0",17.000,0.000,46,41,41,38,00,21,7f,37*6610c8a6
#BESTPOSA,FILE,0,1.5,FINESTEERING,2307,287078.050,02000800,cdba,17139;SOL_COMPUTED,NARROW_INT,17.60189966964,78.12660531111,527.7198,-76.2000,WGS84,0.0124,0.0149,0.0289,"0",17.050,0.000,46,42,42,40,00,21,7f,37*91eaa372
#BESTPOSA,FILE,0,1.5,FINESTEERING,2307,287078.100,02000800,cdba,17139;SOL_COMPUTED,NARROW_INT,17.60190233931,78.12660531376,527.7231,-76.2000,WGS84,0.0124,0.0149,0.0289,"0",17.100,0.000,46,42,42,40,00,21,7f,37*9230f76d
#BESTPOSA,FILE,0,1.5,FINESTEERING,2307,287078.200,02000800,cdba,17139;SOL_COMPUTED,NARROW_INT,17.60190767621,78.12660528069,527.7180,-76.2000,WGS84,0.0124,0.0149,0.0290,"0",17.200,0.000,46,42,42,40,00,21,7f,37*9e3a54c5
#BESTPOSA,FILE,0,1.5,FINESTEERING,2307,287078.300,02000800,cdba,17139;SOL_COMPUTED,NARROW_INT,17.60191305316,78.12660526015,527.7222,-76.2000,WGS84,0.0124,0.0150,0.0291,"0",17.300,0.000,46,42,42,40,00,21,7f,37*6a8ba6b4
#BESTPOSA,FILE,0,1.5,FINESTEERING,2307,287078.350,02000800,cdba,17139;SOL_COMPUTED,NARROW_INT,17.60191575264,78.12660525099,527.7249,-76.2000,WGS84,0.0125,0.0150,0.0291,"0",17.350,0.000,46,42,42,40,00,21,7f,37*f27ed301
#BESTPOSA,FILE,0,1.5,FINESTEERING,2307,287078.400,02000800,cdba,17139;SOL_COMPUTED,NARROW_INT,17.60191845388,78.12660525615,527.7267,-76.2000,WGS84,0.0125,0.0150,0.0291,"0",17.400,0.000,46,42,42,40,00,21,7f,37*377dfbac
#BESTPOSA,FILE,0,1.5,FINESTEERING,2307,287078.450,02000800,cdba,17139;SOL_COMPUTED,NARROW_INT,17.60192115301,78.12660525403,527.7304,-76.2000,WGS84,0.0125,0.0150,0.0292,"0",17.450,0.000,46,42,42,40,00,21,7f,37*a80ccf56
#BESTPOSA,FILE,0,1.5,FINESTEERING,2307,287078.500,02000800,cdba,17139;SOL_COMPUTED,NARROW_INT,17.60192387062,78.12660525182,527.7337,-76.2000,WGS84,0.0125,0.0150,0.0292,"0",17.500,0.000,46,42,42,40,00,21,7f,37*dd5566e7
#BESTPOSA,FILE,0,1.5,FINESTEERING,2307,287078.550,02000800,cdba,17139;SOL_COMPUTED,NARROW_INT,17.60192657990,78.12660523697,527.7331,-76.2000,WGS84,0.0125,0.0151,0.0292,"0",17.550,0.000,46,42,42,40,00,21,7f,37*ca33ff0d
#BESTPOSA,FILE,0,1.5,FINESTEERING,2307,287078.600,02000800,cdba,17139;SOL_COMPUTED,NARROW_INT,17.60192929012,78.12660521429,527.7369,-76.2000,WGS84,0.0125,0.0151,0.0293,"0",17.600,0.000,46,42,42,40,00,21,7f,37*dc97be87
#BESTPOSA,FILE,0,1.5,FINESTEERING,2307,287078.650,02000800,cdba,17139;SOL_COMPUTED,NARROW_INT,17.60193198546,78.12660518537,527.7372,-76.2000,WGS84,0.0125,0.0151,0.0293,"0",17.650,0.000,46,42,42,40,00,21,7f,37*e10692f6
#BESTPOSA,FILE,0,1.5,FINESTEERING,2307,287078.700,02000800,cdba,17139;SOL_COMPUTED,NARROW_INT,17.60193467752,78.12660516028,527.7369,-76.2000,WGS84,0.0125,0.0151,0.0293,"0",17.700,0.000,46,42,42,40,00,21,7f,37*40954b7c
#BESTPOSA,FILE,0,1.5,FINESTEERING,2307,287078.750,02000800,cdba,17139;SOL_COMPUTED,NARROW_INT,17.60193736435,78.12660514114,527.7362,-76.2000,WGS84,0.0126,0.0151,0.0294,"0",17.750,0.000,46,42,42,40,00,21,7f,37*5602d47c
#BESTPOSA,FILE,0,1.5,FINESTEERING,2307,287078.800,02000800,cdba,17139;SOL_COMPUTED,NARROW_INT,17.60194009589,78.12660513066,527.7395,-76.2000,WGS84,0.0126,0.0151,0.0294,"0",17.800,0.000,46,42,42,40,00,21,7f,37*e27daaeb
#BESTPOSA,FILE,0,1.5,FINESTEERING,2307,287078.850,02000800,cdba,17139;SOL_COMPUTED,NARROW_INT,17.60194281898,78.12660512292,527.7432,-76.2000,WGS84,0.0126,0.0151,0.0294,"0",17.850,0.000,46,42,42,40,00,21,7f,37*adbf1692
#BESTPOSA,FILE,0,1.5,FINESTEERING,2307,287078.900,02000800,cdba,17139;SOL_COMPUTED,NARROW_INT,17.60194554433,78.12660508633,527.7478,-76.2000,WGS84,0.0126,0.0152,0.0295,"0",17.900,0.000,46,42,42,40,00,21,7f,37*7d9eb7a3
#BESTPOSA,FILE,0,1.5,FINESTEERING,2307,287078.950,02000800,cdba,17139;SOL_COMPUTED,NARROW_INT,17.60194826003,78.12660506669,527.7465,-76.2000,WGS84,0.0126,0.0152,0.0295,"0",17.950,0.000,46,42,42,40,00,21,7f,37*1c2d55e2
#BESTPOSA,FILE,0,1.5,FINESTEERING,2307,287079.000,02000800,cdba,17139;SOL_COMPUTED,NARROW_INT,17.60195099507,78.12660503354,527.7487,-76.2000,WGS84,0.0126,0.0152,0.0295,"0",18.000,0.000,46,42,42,40,00,21,7f,37*455c6d19
#BESTPOSA,FILE,0,1.5,FINESTEERING,2307,287079.200,02000800,cdba,17139;SOL_COMPUTED,NARROW_INT,17.60196192335,78.12660485373,527.7605,-76.2000,WGS84,0.0127,0.0153,0.0298,"0",18.200,0.000,45,41,41,39,00,21,7f,37*dac6edcc
#BESTPOSA,FILE,0,2.0,FINESTEERING,2307,287079.300,02000800,cdba,17139;SOL_COMPUTED,NARROW_INT,17.60196738342,78.12660477000,527.7651,-76.2000,WGS84,0.0128,0.0154,0.0299,"0",18.300,0.000,45,41,41,39,00,21,7f,37*6ddb0e55
#BESTPOSA,FILE,0,2.0,FINESTEERING,2307,287079.350,02000800,cdba,17139;SOL_COMPUTED,NARROW_INT,17.60197010947,78.12660474682,527.7670,-76.2000,WGS84,0.0128,0.0154,0.0299,"0",18.350,0.000,45,41,41,39,00,21,7f,37*5c6b614b
#BESTPOSA,FILE,0,2.0,FINESTEERING,2307,287079.400,02000800,cdba,17139;SOL_COMPUTED,NARROW_INT,17.60197284081,78.12660469883,527.7662,-76.2000,WGS84,0.0128,0.0154,0.0300,"0",18.400,0.000,45,41,41,39,00,21,7f,37*1a07eb16
#BESTPOSA,FILE,0,2.0,FINESTEERING,2307,287079.450,02000800,cdba,17139;SOL_COMPUTED,NARROW_INT,17.60197556360,78.12660465306,527.7704,-76.2000,WGS84,0.0128,0.0154,0.0300,"0",18.450,0.000,45,41,41,39,00,21,7f,37*5332c57f
#BESTPOSA,FILE,0,2.0,FINESTEERING,2307,287079.500,02000800,cdba,17139;SOL_COMPUTED,NARROW_INT,17.60197830606,78.12660462494,527.7702,-76.2000,WGS84,0.0128,0.0154,0.0300,"0",18.500,0.000,45,41,41,39,00,21,7f,37*39d92524
#BESTPOSA,FILE,0,2.0,FINESTEERING,2307,287079.550,02000800,cdba,17139;SOL_COMPUTED,NARROW_INT,17.60198103665,78.12660458371,527.7747,-76.2000,WGS84,0.0128,0.0154,0.0300,"0",18.550,0.000,45,41,41,39,00,21,7f,37*35a38d06
#BESTPOSA,FILE,0,2.0,FINESTEERING,2307,287079.600,02000800,cdba,17139;SOL_COMPUTED,NARROW_INT,17.60198378859,78.12660454876,527.7776,-76.2000,WGS84,0.0129,0.0154,0.0301,"0",18.600,0.000,45,41,41,39,00,21,7f,37*6dab25a7
#BESTPOSA,FILE,0,2.0,FINESTEERING,2307,287079.650,02000800,cdba,17139;SOL_COMPUTED,NARROW_INT,17.60198653215,78.12660451781,527.7802,-76.2000,WGS84,0.0129,0.0155,0.0301,"0",18.650,0.000,45,41,41,39,00,21,7f,37*6b632ca0
#BESTPOSA,FILE,0,2.0,FINESTEERING,2307,287079.700,02000800,cdba,17139;SOL_COMPUTED,NARROW_INT,17.60198927099,78.12660445417,527.7868,-76.2000,WGS84,0.0129,0.0155,0.0301,"0",18.700,0.000,45,41,41,39,00,21,7f,37*c58d90cb
#BESTPOSA,FILE,0,2.0,FINESTEERING,2307,287079.750,02000800,cdba,17139;SOL_COMPUTED,NARROW_INT,17.60199201104,78.12660441131,527.7909,-76.2000,WGS84,0.0129,0.0155,0.0302,"0",18.750,0.000,45,41,41,39,00,21,7f,37*146092d3
#BESTPOSA,FILE,0,2.0,FINESTEERING,2307,287079.800,02000800,cdba,17139;SOL_COMPUTED,NARROW_INT,17.60199477742,78.12660438825,527.7923,-76.2000,WGS84,0.0129,0.0155,0.0302,"0",18.800,0.000,45,41,41,39,00,21,7f,37*2e691089
#BESTPOSA,FILE,0,2.0,FINESTEERING,2307,287079.850,02000800,cdba,17139;SOL_COMPUTED,NARROW_INT,17.60199753037,78.12660435597,527.7952,-76.2000,WGS84,0.0129,0.0155,0.0303,"0",18.850,0.000,45,41,41,39,00,21,7f,37*7b26d2cb
#BESTPOSA,FILE,0,2.0,FINESTEERING,2307,287079.900,02000800,cdba,17139;SOL_COMPUTED,NARROW_INT,17.60200027874,78.12660431340,527.7985,-76.2000,WGS84,0.0129,0.0155,0.0303,"0",18.900,0.000,45,41,41,39,00,21,7f,37*9d85e257
#BESTPOSA,FILE,0,2.0,FINESTEERING,2307,287079.950,02000800,cdba,17139;SOL_COMPUTED,NARROW_INT,17.60200302951,78.12660427049,527.8037,-76.2000,WGS84,0.0130,0.0155,0.0303,"0",18.950,0.000,45,41,41,39,00,21,7f,37*8c61302c
#BESTPOSA,FILE,0,2.0,FINESTEERING,2307,287080.000,02000800,cdba,17139;SOL_COMPUTED,NARROW_INT,17.60200579729,78.12660423234,527.8050,-76.2000,WGS84,0.0130,0.0156,0.0303,"0",19.000,0.000,45,41,41,39,00,21,7f,37*0bea43b9
#BESTPOSA,FILE,0,1.5,FINESTEERING,2307,287080.250,02000800,cdba,17139;SOL_COMPUTED,NARROW_INT,17.60201959121,78.12660402706,527.8166,-76.2000,WGS84,0.0131,0.0157,0.0306,"0",19.250,0.000,45,39,39,37,00,21,7f,37*163b6035
#BESTPOSA,FILE,0,1.5,FINESTEERING,2307,287080.350,02000800,cdba,17139;SOL_COMPUTED,NARROW_INT,17.60202511219,78.12660394773,527.8195,-76.2000,WGS84,0.0131,0.0157,0.0307,"0",19.350,0.000,44,39,39,37,00,21,7f,37*6e7f0ebb
#BESTPOSA,FILE,0,1.5,FINESTEERING,2307,287080.500,02000800,cdba,17139;SOL_COMPUTED,NARROW_INT,17.60203334140,78.12660374586,527.8272,-76.2000,WGS84,0.0132,0.0158,0.0308,"0",19.500,0.000,44,39,39,37,00,21,7f,37*6626a3e2
#BESTPOSA,FILE,0,1.5,FINESTEERING,2307,287080.550,02000800,cdba,17139;SOL_COMPUTED,NARROW_INT,17.60203609804,78.12660369512,527.8314,-76.2000,WGS84,0.0132,0.0158,0.0308,"0",19.550,0.000,44,39,39,37,00,21,7f,37*962afa07
#BESTPOSA,FILE,0,1.5,FINESTEERING,2307,287080.600,02000800,cdba,17139;SOL_COMPUTED,NARROW_INT,17.60203888698,78.12660367482,527.8312,-76.2000,WGS84,0.0132,0.0158,0.0308,"0",19.600,0.000,44,39,39,37,00,21,7f,37*551ca841
#BESTPOSA,FILE,0,1.5,FINESTEERING,2307,287080.650,02000800,cdba,17139;SOL_COMPUTED,NARROW_INT,17.60204165237,78.12660362584,527.8351,-76.2000,WGS84,0.0132,0.0158,0.0309,"0",19.650,0.000,44,39,39,37,00,21,7f,37*85ce6488
#BESTPOSA,FILE,0,1.5,FINESTEERING,2307,287080.750,02000800,cdba,17139;SOL_COMPUTED,NARROW_INT,17.60204715447,78.12660350423,527.8393,-76.2000,WGS84,0.0132,0.0159,0.0310,"0",19.750,0.000,44,39,39,37,00,21,7f,37*735df7f8
#BESTPOSA,FILE,0,1.5,FINESTEERING,2307,287080.800,02000800,cdba,17139;SOL_COMPUTED,NARROW_INT,17.60204992219,78.12660347538,527.8379,-76.2000,WGS84,0.0133,0.0159,0.0310,"0",19.800,0.000,44,39,39,37,00,21,7f,37*a4801e76
#BESTPOSA,FILE,0,1.5,FINESTEERING,2307,287080.850,02000800,cdba,17139;SOL_COMPUTED,NARROW_INT,17.60205270401,78.12660342630,527.8401,-76.2000,WGS84,0.0133,0.0160,0.0310,"0",19.850,0.000,44,39,39,37,00,21,7f,37*375bd575
#BESTPOSA,FILE,0,1.5,FINESTEERING,2307,287080.950,02000800,cdba,17139;SOL_COMPUTED,NARROW_INT,17.60205826833,78.12660338158,527.8433,-76.2000,WGS84,0.0133,0.0161,0.0311,"0",19.950,0.000,45,39,39,37,00,21,7f,37*301c7fa8
#BESTPOSA,FILE,0,1.5,FINESTEERING,2307,287081.350,02000800,cdba,17139;SOL_COMPUTED,NARROW_INT,17.60208059214,78.12660300925,527.8703,-76.2000,WGS84,0.0135,0.0166,0.0316,"0",20.350,0.000,45,38,38,37,00,21,7f,37*01d11c2a
#BESTPOSA,FILE,0,1.5,FINESTEERING,2307,287081.450,02000800,cdba,17139;SOL_COMPUTED,NARROW_INT,17.60208615834,78.12660299275,527.8701,-76.2000,WGS84,0.0135,0.0167,0.0317,"0",20.450,0.000,45,38,38,37,00,21,7f,37*a2c29a00
